City_ID,City,Country,Date,Lat,Lng,Max Temp,Humidity,Cloudiness,Wind Speed
0,Qaanaaq,GL,2020-08-02 01:51:27,77.48,-69.36,39.81,70,100,6.35
1,Mataura,NZ,2020-08-02 01:51:27,-46.19,168.86,53.26,84,100,1.54
2,Ribeira Grande,PT,2020-08-02 01:51:28,38.52,-28.7,70.93,67,1,7.47
3,Cape Town,ZA,2020-08-02 01:47:36,-33.93,18.42,51.8,76,0,10.29
4,Georgetown,MY,2020-08-02 01:51:20,5.41,100.34,80.6,88,20,4.7
5,Punta Arenas,CL,2020-08-02 01:51:28,-53.15,-70.92,35.6,93,100,5.82
6,Saint-Philippe,RE,2020-08-02 01:51:28,-21.36,55.77,68.0,72,90,9.17
7,Hobart,AU,2020-08-02 01:50:48,-42.88,147.33,55.99,47,75,17.22
8,Ushuaia,AR,2020-08-02 01:51:29,-54.8,-68.3,37.4,86,98,5.82
9,Sao Gabriel Da Cachoeira,BR,2020-08-02 01:51:29,-0.13,-67.09,74.16,91,100,1.05
10,Abilene,US,2020-08-02 01:51:29,32.45,-99.73,91.4,33,1,8.05
11,Panama City,PA,2020-08-02 01:51:29,8.99,-79.52,82.4,78,95,6.93
12,New Norfolk,AU,2020-08-02 01:51:30,-42.78,147.06,55.99,53,91,3.0
13,Port Alfred,ZA,2020-08-02 01:51:30,-33.59,26.89,57.76,70,0,10.11
14,Ilulissat,GL,2020-08-02 01:51:30,69.22,-51.1,44.6,87,42,3.36
15,Anadyr,RU,2020-08-02 01:51:30,64.75,177.48,53.6,71,75,11.18
16,Verpelet,HU,2020-08-02 01:51:30,47.85,20.23,59.65,75,0,5.03
17,Busselton,AU,2020-08-02 01:51:31,-33.65,115.33,61.0,71,31,5.91
18,Potosi,BO,2020-08-02 01:51:31,-19.58,-65.75,44.56,62,58,2.28
19,Honiara,SB,2020-08-02 01:51:31,-9.43,159.95,87.8,66,20,6.93
20,Shingu,JP,2020-08-02 01:51:31,33.73,135.98,80.6,88,75,6.93
21,Albany,US,2020-08-02 01:51:31,42.6,-73.97,75.0,56,98,2.13
22,Tura,IN,2020-08-02 01:51:31,25.52,90.22,84.06,73,92,1.59
23,Ponta Do Sol,PT,2020-08-02 01:51:32,32.67,-17.1,69.01,60,2,4.25
24,Rikitea,PF,2020-08-02 01:51:32,-23.12,-134.97,73.8,78,0,5.19
25,Wadi Maliz,TN,2020-08-02 01:51:32,36.47,8.55,71.6,88,0,3.89
26,Foam Lake,CA,2020-08-02 01:51:32,51.65,-103.53,65.62,70,4,4.63
27,Ahipara,NZ,2020-08-02 01:51:32,-35.17,173.17,57.49,89,100,15.3
28,Puerto El Triunfo,SV,2020-08-02 01:51:32,13.28,-88.55,82.4,78,20,3.36
29,Bowling Green,US,2020-08-02 01:50:36,36.99,-86.44,71.6,83,90,10.29
30,Andenes,NO,2020-08-02 01:51:33,69.31,16.12,50.0,93,0,3.36
31,Linqiong,CN,2020-08-02 01:51:33,30.42,103.46,84.0,100,40,2.24
32,Kodiak,US,2020-08-02 01:50:12,57.79,-152.41,59.0,87,75,6.93
33,Atasu,KZ,2020-08-02 01:51:34,48.68,71.64,71.37,44,23,13.33
34,Hilo,US,2020-08-02 01:49:34,19.73,-155.09,82.4,61,90,4.7
35,Jamestown,US,2020-08-02 01:51:34,42.1,-79.24,68.0,88,75,4.7
36,Broken Hill,AU,2020-08-02 01:51:34,-31.95,141.43,64.4,23,51,8.05
37,Gurlan,UZ,2020-08-02 01:51:34,41.84,60.39,71.6,68,0,2.24
38,Kapaa,US,2020-08-02 01:49:00,22.08,-159.32,80.01,83,75,10.29
39,Shelburne,CA,2020-08-02 01:51:32,44.08,-80.2,75.2,57,20,5.82
40,Carauari,BR,2020-08-02 01:51:35,-4.88,-66.9,74.91,65,95,1.07
41,Fatsa,TR,2020-08-02 01:51:35,41.03,37.5,75.2,78,75,14.99
42,Sena Madureira,BR,2020-08-02 01:51:35,-9.07,-68.66,73.92,55,79,1.9
43,Moron,AR,2020-08-02 01:51:36,-34.65,-58.62,63.0,85,100,5.01
44,Verkhnyaya Inta,RU,2020-08-02 01:51:36,65.98,60.31,57.99,77,0,7.09
45,Flin Flon,CA,2020-08-02 01:51:36,54.77,-101.86,68.61,50,0,2.3
46,Myre,NO,2020-08-02 01:51:36,69.1,15.95,50.0,93,0,3.36
47,Kruisfontein,ZA,2020-08-02 01:51:36,-34.0,24.73,53.83,58,0,10.07
48,Teguise,ES,2020-08-02 01:51:37,29.06,-13.56,73.4,83,0,10.29
49,Hermanus,ZA,2020-08-02 01:51:37,-34.42,19.23,63.0,39,0,3.0
50,Krasnyy Bogatyr,RU,2020-08-02 01:51:37,56.01,41.13,51.48,99,100,6.29
51,Victoria,HK,2020-08-02 01:47:17,22.29,114.16,84.0,83,100,11.01
52,Puerto Ayora,EC,2020-08-02 01:51:37,-0.74,-90.35,68.0,93,96,1.01
53,Sao Francisco De Paula,BR,2020-08-02 01:51:37,-29.45,-50.58,57.99,75,0,5.01
54,Moose Factory,CA,2020-08-02 01:51:38,51.26,-80.61,51.8,93,90,8.05
55,Arraial Do Cabo,BR,2020-08-02 01:51:38,-22.97,-42.03,68.76,76,8,12.66
56,Yerbogachen,RU,2020-08-02 01:51:38,61.28,108.01,71.37,49,0,11.34
57,Manggar,ID,2020-08-02 01:51:38,-2.88,108.27,82.96,74,65,11.05
58,Bowen,AU,2020-08-02 01:47:02,-20.02,148.23,73.0,64,40,21.92
59,Bredasdorp,ZA,2020-08-02 01:51:38,-34.53,20.04,48.2,93,0,5.82
60,Bhilwara,IN,2020-08-02 01:51:39,25.35,74.63,83.28,75,68,7.72
61,Avarua,CK,2020-08-02 01:51:39,-21.21,-159.78,73.4,60,100,6.93
62,Kingaroy,AU,2020-08-02 01:51:39,-26.53,151.83,71.01,48,0,8.05
63,Clyde River,CA,2020-08-02 01:51:39,70.47,-68.59,41.0,100,75,2.24
64,Kununurra,AU,2020-08-02 01:51:39,-15.77,128.73,80.6,15,3,8.05
65,Sarankhola,BD,2020-08-02 01:51:39,22.31,89.79,86.4,76,92,4.18
66,Torbay,CA,2020-08-02 01:47:56,47.67,-52.73,60.01,100,90,2.24
67,Tasiilaq,GL,2020-08-02 01:51:40,65.61,-37.64,46.4,49,1,5.82
68,Atuona,PF,2020-08-02 01:51:40,-9.8,-139.03,79.52,74,53,15.5
69,Tuatapere,NZ,2020-08-02 01:51:40,-46.13,167.68,52.99,88,100,6.15
70,San Quintin,MX,2020-08-02 01:51:40,30.48,-115.95,75.87,69,1,4.45
71,Poum,NC,2020-08-02 01:51:40,-20.23,164.02,69.84,70,1,22.35
72,La Ronge,CA,2020-08-02 01:51:41,55.1,-105.28,73.4,46,5,5.82
73,Namibe,AO,2020-08-02 01:51:41,-15.2,12.15,66.34,75,0,3.65
74,Lieksa,FI,2020-08-02 01:51:41,63.32,30.02,54.48,82,99,3.89
75,Bethel,US,2020-08-02 01:51:41,41.37,-73.41,78.8,57,1,8.05
76,Fortuna,US,2020-08-02 01:51:41,40.6,-124.16,68.0,73,19,4.0
77,Ancud,CL,2020-08-02 01:51:42,-41.87,-73.82,46.99,87,20,11.41
78,Oshakati,NA,2020-08-02 01:51:42,-17.78,15.68,57.88,34,0,12.01
79,Tuktoyaktuk,CA,2020-08-02 01:51:42,69.45,-133.04,53.6,87,75,16.11
80,Praya,CV,2020-08-02 01:51:42,14.92,-23.51,78.8,83,20,4.7
81,Morant Bay,JM,2020-08-02 01:50:55,17.88,-76.41,86.0,74,20,11.41
82,Aykhal,RU,2020-08-02 01:51:43,66.0,111.5,69.8,46,0,6.13
83,Mahebourg,MU,2020-08-02 01:51:43,-20.41,57.7,69.8,88,75,18.34
84,Barrow,US,2020-08-02 01:51:43,71.29,-156.79,37.4,73,90,9.17
85,Nikolskoye,RU,2020-08-02 01:51:43,59.7,30.79,55.0,87,95,4.47
86,Bluff,NZ,2020-08-02 01:51:43,-46.6,168.33,51.6,89,100,9.86
87,Quatre Cocos,MU,2020-08-02 01:51:44,-20.21,57.76,69.8,88,75,18.34
88,Kinshasa,CD,2020-08-02 01:51:44,-4.32,15.32,76.28,56,57,5.14
89,Dzhebariki-Khaya,RU,2020-08-02 01:51:44,62.22,135.8,77.11,35,0,4.36
90,Kawalu,ID,2020-08-02 01:51:44,-7.38,108.21,75.04,78,77,3.18
91,Mehamn,NO,2020-08-02 01:51:44,71.04,27.85,48.58,86,91,4.85
92,Deloraine,AU,2020-08-02 01:51:44,-41.53,146.67,57.99,66,90,17.22
93,Vaini,TO,2020-08-02 01:51:45,-21.2,-175.2,73.4,78,75,10.29
94,Katsuura,JP,2020-08-02 01:51:45,35.13,140.3,86.0,74,20,4.7
95,Lagoa,PT,2020-08-02 01:51:45,39.05,-27.98,70.92,70,0,8.41
96,Mount Isa,AU,2020-08-02 01:51:45,-20.73,139.5,75.2,33,0,16.11
97,Black River,JM,2020-08-02 01:51:45,18.03,-77.85,86.0,74,75,8.05
98,Wexford,IE,2020-08-02 01:51:46,52.33,-6.46,55.0,85,0,8.08
99,Harwich,GB,2020-08-02 01:51:46,51.94,1.28,62.01,78,22,3.0
100,Teya,RU,2020-08-02 01:51:46,60.38,92.63,62.22,73,94,2.3
101,Darnah,LY,2020-08-02 01:51:46,32.77,22.64,80.49,61,0,18.32
102,Lorengau,PG,2020-08-02 01:51:46,-2.02,147.27,82.89,80,6,11.56
103,Havre-Saint-Pierre,CA,2020-08-02 01:51:46,50.23,-63.6,60.8,87,1,10.29
104,Jamsa,FI,2020-08-02 01:51:47,61.86,25.19,53.6,100,20,3.36
105,Klaksvik,FO,2020-08-02 01:51:47,62.23,-6.59,50.0,100,60,13.87
106,Canby,US,2020-08-02 01:50:15,45.26,-122.69,82.4,37,1,6.93
107,Mar Del Plata,AR,2020-08-02 01:48:36,-38.0,-57.56,50.0,76,100,2.24
108,Malkera,IN,2020-08-02 01:51:47,23.78,86.3,88.3,62,99,2.84
109,Kensington,AU,2020-08-02 01:51:48,-33.92,151.22,64.4,36,67,8.05
110,Quelimane,MZ,2020-08-02 01:51:48,-17.88,36.89,64.4,88,20,2.24
111,Flinders,AU,2020-08-02 01:51:48,-34.58,150.86,66.0,51,84,7.0
112,Port Augusta,AU,2020-08-02 01:51:48,-32.5,137.77,64.4,28,3,5.82
113,Port Lincoln,AU,2020-08-02 01:49:30,-34.73,135.87,57.29,71,100,5.26
114,Sakakah,SA,2020-08-02 01:51:48,29.97,40.21,84.2,18,0,4.7
115,La Palma,US,2020-08-02 01:51:49,33.85,-118.05,84.0,42,20,5.82
116,Kirovskiy,RU,2020-08-02 01:51:49,45.09,133.51,82.9,65,2,7.99
117,Deputatskiy,RU,2020-08-02 01:51:49,69.3,139.9,61.16,51,4,5.26
118,Carnarvon,AU,2020-08-02 01:51:49,-24.87,113.63,66.2,72,0,16.11
119,Saint-Augustin,CA,2020-08-02 01:51:49,51.23,-58.65,52.54,94,45,0.65
120,Puqi,CN,2020-08-02 01:51:49,29.72,113.88,91.85,61,28,4.81
121,Paita,PE,2020-08-02 01:51:50,-5.09,-81.11,63.21,83,0,15.39
122,Tiznit,MA,2020-08-02 01:51:50,29.58,-9.5,77.05,45,0,0.51
123,Pevek,RU,2020-08-02 01:51:50,69.7,170.31,37.17,89,90,5.55
124,Bafra,TR,2020-08-02 01:51:50,41.57,35.91,75.2,64,75,13.87
125,Hami,CN,2020-08-02 01:51:50,42.8,93.45,83.44,14,31,1.59
126,Fort Nelson,CA,2020-08-02 01:47:38,58.81,-122.7,86.0,45,40,5.82
127,Wanning,CN,2020-08-02 01:51:51,18.8,110.4,83.97,82,100,8.55
128,Ashland,US,2020-08-02 01:51:51,40.82,-82.27,71.6,94,90,8.46
129,Castro,BR,2020-08-02 01:51:51,-24.79,-50.01,51.84,90,0,3.36
130,Thompson,CA,2020-08-02 01:51:51,55.74,-97.86,69.8,46,20,5.82
131,Ninghai,CN,2020-08-02 01:51:54,29.29,121.42,93.0,62,20,11.18
132,Cabo San Lucas,MX,2020-08-02 01:51:55,22.89,-109.91,93.2,62,5,17.22
133,Hasaki,JP,2020-08-02 01:51:55,35.73,140.83,86.0,61,20,10.29
134,Benito Juarez,MX,2020-08-02 01:51:55,19.39,-99.17,66.2,55,90,3.36
135,Geraldton,AU,2020-08-02 01:51:55,-28.77,114.6,55.4,76,0,14.99
136,Tromso,NO,2020-08-02 01:51:55,69.65,18.96,51.8,87,0,11.41
137,Khatanga,RU,2020-08-02 01:51:56,71.97,102.5,64.38,81,100,6.11
138,Ribas Do Rio Pardo,BR,2020-08-02 01:51:56,-20.44,-53.76,68.07,46,0,7.56
139,Upernavik,GL,2020-08-02 01:51:56,72.79,-56.15,42.15,69,0,13.29
140,Burnie,AU,2020-08-02 01:51:56,-41.07,145.92,57.99,70,100,7.0
141,Coihaique,CL,2020-08-02 01:51:57,-45.58,-72.07,41.0,80,75,2.24
142,Agirish,RU,2020-08-02 01:51:57,61.92,63.02,59.07,72,26,5.12
143,Samarai,PG,2020-08-02 01:51:57,-10.62,150.67,77.76,77,38,15.75
144,Shimoda,JP,2020-08-02 01:51:58,34.67,138.95,80.6,78,40,10.29
145,Sfantu Gheorghe,RO,2020-08-02 01:51:58,45.87,25.78,54.25,85,45,0.47
146,Monte Escobedo,MX,2020-08-02 01:51:58,22.3,-103.58,64.9,62,58,2.68
147,Sargatskoye,RU,2020-08-02 01:51:58,55.61,73.5,73.08,68,42,2.86
148,Touros,BR,2020-08-02 01:51:58,-5.2,-35.46,73.4,94,40,8.05
149,Souillac,MU,2020-08-02 01:51:59,-20.52,57.52,69.8,88,75,18.34
150,Corinto,GR,2020-08-02 01:51:59,37.94,22.96,82.0,49,0,1.01
151,Namatanai,PG,2020-08-02 01:51:59,-3.67,152.43,82.83,77,75,6.58
152,Jardim,BR,2020-08-02 01:51:59,-21.48,-56.14,75.43,38,0,9.46
153,San Patricio,MX,2020-08-02 01:52:00,19.22,-104.7,82.4,74,75,2.57
154,Deder,ET,2020-08-02 01:52:00,9.32,41.45,54.91,91,97,8.48
155,Bazarnyye Mataki,RU,2020-08-02 01:52:00,54.88,49.93,58.75,95,100,13.11
156,Hampton,US,2020-08-02 01:47:37,37.03,-76.35,77.0,100,1,5.82
157,Comodoro Rivadavia,AR,2020-08-02 01:52:00,-45.87,-67.5,53.6,46,0,19.46
158,Kosh-Agach,RU,2020-08-02 01:52:01,50.0,88.67,54.64,55,47,1.05
159,Kavieng,PG,2020-08-02 01:52:01,-2.57,150.8,84.43,73,36,11.88
160,Bure,ET,2020-08-02 01:52:01,10.7,37.07,55.9,98,100,1.28
161,Severo-Kurilsk,RU,2020-08-02 01:52:01,50.68,156.12,56.89,77,90,7.18
162,Bandarbeyla,SO,2020-08-02 01:52:01,9.49,50.81,77.97,65,95,25.75
163,Butaritari,KI,2020-08-02 01:52:01,3.07,172.79,83.84,78,11,18.19
164,Chuy,UY,2020-08-02 01:52:02,-33.7,-53.46,51.82,87,67,7.43
165,Tiksi,RU,2020-08-02 01:52:02,71.69,128.87,49.44,68,49,4.16
166,Calvinia,ZA,2020-08-02 01:52:02,-31.47,19.78,54.12,38,0,8.14
167,Planaltina,BR,2020-08-02 01:51:51,-15.45,-47.61,64.4,59,7,2.24
168,Guantanamo,CU,2020-08-02 01:52:02,20.14,-75.21,84.2,83,75,1.01
169,Marawi,PH,2020-08-02 01:52:03,8.0,124.29,82.0,78,100,4.34
170,Pangnirtung,CA,2020-08-02 01:52:03,66.15,-65.71,45.93,81,99,1.43
171,Lebu,CL,2020-08-02 01:52:03,-37.62,-73.65,50.2,94,23,8.75
172,Thinadhoo,MV,2020-08-02 01:52:03,0.53,72.93,82.62,78,43,11.01
173,Yaan,NG,2020-08-02 01:52:04,7.38,8.57,72.19,89,100,5.97
174,Vila Velha,BR,2020-08-02 01:52:04,-20.33,-40.29,66.2,93,90,9.17
175,Drezdenko,PL,2020-08-02 01:52:04,52.84,15.83,60.01,80,9,5.64
176,Provideniya,RU,2020-08-02 01:52:04,64.38,-173.3,49.8,59,20,9.71
177,Manta,EC,2020-08-02 01:51:39,-0.95,-80.73,73.4,83,75,11.41
178,Labuan,MY,2020-08-02 01:52:04,5.28,115.24,82.4,83,20,3.36
179,Viedma,AR,2020-08-02 01:52:05,-40.81,-63.0,53.01,66,48,4.0
180,Zyryanka,RU,2020-08-02 01:52:05,65.75,150.85,67.44,43,18,2.33
181,Padang,ID,2020-08-02 01:52:05,-0.95,100.35,81.81,70,99,3.38
182,Airai,TL,2020-08-02 01:52:05,-8.93,125.41,70.93,38,0,4.29
183,Shaunavon,CA,2020-08-02 01:52:05,49.65,-108.42,76.17,43,59,9.91
184,Trairi,BR,2020-08-02 01:52:06,-3.28,-39.27,78.12,82,27,10.47
185,La Paz,BO,2020-08-02 01:50:59,-16.5,-68.15,35.6,43,16,5.82
186,Tonantins,BR,2020-08-02 01:52:06,-2.87,-67.8,75.67,75,94,1.63
187,Sao Filipe,CV,2020-08-02 01:52:06,14.9,-24.5,77.45,84,0,3.24
188,Auki,SB,2020-08-02 01:52:06,-8.77,160.7,82.81,77,46,3.27
189,Esperance,AU,2020-08-02 01:52:06,-33.87,121.9,50.0,87,100,16.11
190,Beruwala,LK,2020-08-02 01:52:07,6.48,79.98,80.13,85,97,10.92
191,Sarab,IR,2020-08-02 01:52:07,38.61,44.99,70.68,60,3,3.71
192,Portland,US,2020-08-02 01:47:10,45.52,-122.68,82.0,42,20,8.05
193,Santiago,CL,2020-08-02 01:50:02,-33.46,-70.65,50.0,87,50,4.7
194,Bilibino,RU,2020-08-02 01:52:07,68.05,166.44,47.89,75,100,1.5
195,Kupang,ID,2020-08-02 01:49:44,-10.17,123.58,84.2,39,20,16.11
196,Thunder Bay,CA,2020-08-02 01:48:45,48.4,-89.32,62.6,93,75,6.93
197,Mastung,PK,2020-08-02 01:52:08,29.8,66.84,75.04,39,9,3.42
198,Lokosovo,RU,2020-08-02 01:52:08,61.13,74.82,64.8,85,86,4.94
199,Opuwo,NA,2020-08-02 01:52:08,-18.06,13.84,57.43,36,0,9.91
200,Hithadhoo,MV,2020-08-02 01:52:08,-0.6,73.08,83.01,73,21,11.25
201,Labuhan,ID,2020-08-02 01:52:09,-6.88,112.21,81.39,66,1,7.67
202,Isla Mujeres,MX,2020-08-02 01:50:02,21.23,-86.73,84.2,79,40,3.36
203,Luanda,AO,2020-08-02 01:52:09,-8.84,13.23,67.01,93,85,4.54
204,Chokurdakh,RU,2020-08-02 01:52:09,70.63,147.92,60.21,52,95,5.26
205,Bambous Virieux,MU,2020-08-02 01:52:09,-20.34,57.76,69.8,88,75,18.34
206,Amga,RU,2020-08-02 01:52:09,60.9,131.96,75.06,38,0,2.8
207,Labrea,BR,2020-08-02 01:52:10,-7.26,-64.8,74.03,54,66,0.69
208,Nouadhibou,MR,2020-08-02 01:52:10,20.93,-17.03,75.2,83,20,12.75
209,Christchurch,NZ,2020-08-02 01:52:10,-43.53,172.63,59.0,62,100,8.05
210,Lohja,FI,2020-08-02 01:52:10,60.25,24.07,57.99,83,100,3.0
211,Huilong,CN,2020-08-02 01:52:10,31.81,121.66,91.0,67,78,10.0
212,Saldanha,ZA,2020-08-02 01:52:11,-33.01,17.94,62.82,50,0,10.78
213,Belmonte,BR,2020-08-02 01:52:11,-15.86,-38.88,68.0,88,40,3.36
214,Naze,JP,2020-08-02 01:52:11,28.37,129.48,87.8,74,40,8.05
215,Vaitape,PF,2020-08-02 01:52:11,-16.52,-151.75,79.86,78,0,11.05
216,Macusani,PE,2020-08-02 01:52:11,-14.08,-70.43,36.81,73,12,0.85
217,Yeppoon,AU,2020-08-02 01:52:11,-23.13,150.73,71.6,43,75,14.99
218,Kholodnyy,RU,2020-08-02 01:52:12,62.72,147.95,66.47,32,0,1.19
219,Saint George,US,2020-08-02 01:47:45,37.1,-113.58,107.6,6,1,14.99
220,Nome,US,2020-08-02 01:52:12,64.5,-165.41,57.2,82,90,12.75
221,Chernyshevskiy,RU,2020-08-02 01:52:12,63.01,112.47,71.91,44,0,7.54
222,Hambantota,LK,2020-08-02 01:52:12,6.12,81.12,77.0,100,90,11.41
223,Guerrero Negro,MX,2020-08-02 01:52:12,27.98,-114.06,76.95,64,0,16.37
224,Cayenne,GF,2020-08-02 01:52:13,4.93,-52.33,75.2,100,96,5.82
225,Neverkino,RU,2020-08-02 01:52:13,52.79,46.74,53.24,95,36,7.49
226,Prince Rupert,CA,2020-08-02 01:52:13,54.32,-130.32,62.6,88,90,4.7
227,Nizwa,OM,2020-08-02 01:52:13,22.93,57.53,89.13,43,0,1.23
228,Namtsy,RU,2020-08-02 01:52:13,62.72,129.67,71.6,43,0,4.47
229,Dikson,RU,2020-08-02 01:52:13,73.51,80.55,49.5,82,19,19.6
230,Krasnoselkup,RU,2020-08-02 01:52:14,65.7,82.47,64.27,62,100,16.84
231,Sur,OM,2020-08-02 01:52:14,22.57,59.53,82.56,76,52,7.7
232,Iqaluit,CA,2020-08-02 01:52:14,63.75,-68.51,57.2,76,75,3.36
233,Bonfim,BR,2020-08-02 01:52:14,3.08,-59.95,78.21,76,100,2.46
234,Dunedin,NZ,2020-08-02 01:50:15,-45.87,170.5,62.01,58,95,1.01
235,Burgos,ES,2020-08-02 01:52:15,42.34,-3.71,60.01,93,75,11.41
236,Penzance,GB,2020-08-02 01:52:12,50.12,-5.54,60.01,87,0,11.41
237,Picui,BR,2020-08-02 01:52:15,-6.51,-36.35,68.52,86,11,19.3
238,Lixourion,GR,2020-08-02 01:52:15,38.2,20.43,75.79,74,6,3.2
239,Wollongong,AU,2020-08-02 01:52:15,-34.43,150.88,66.0,51,88,7.0
240,Zorritos,PE,2020-08-02 01:52:15,-3.68,-80.68,72.05,77,0,2.21
241,Mount Vernon,US,2020-08-02 01:52:16,40.91,-73.84,80.01,65,1,4.7
242,Srednekolymsk,RU,2020-08-02 01:52:16,67.45,153.68,60.24,50,57,6.17
243,Zhuanghe,CN,2020-08-02 01:48:11,39.7,122.99,77.0,93,100,3.0
244,Rocha,UY,2020-08-02 01:52:16,-34.48,-54.33,50.92,83,100,8.86
245,Grindavik,IS,2020-08-02 01:52:16,63.84,-22.43,50.0,93,90,13.87
246,Faanui,PF,2020-08-02 01:52:16,-16.48,-151.75,78.98,79,0,11.36
247,Sobolevo,RU,2020-08-02 01:52:17,54.43,31.9,52.72,92,67,9.46
248,Tuy Hoa,VN,2020-08-02 01:52:17,13.08,109.3,86.45,64,96,5.01
249,Pandan,PH,2020-08-02 01:52:17,14.05,124.17,83.98,67,100,2.13
250,Marsa Matruh,EG,2020-08-02 01:52:17,31.35,27.25,75.2,88,0,10.29
251,Bosaso,SO,2020-08-02 01:52:17,11.28,49.18,87.82,45,31,16.22
252,Ibia,BR,2020-08-02 01:52:18,-19.48,-46.54,62.6,59,0,6.93
253,Darab,IR,2020-08-02 01:52:18,28.75,54.54,81.09,33,9,5.28
254,Yingcheng,CN,2020-08-02 01:52:18,30.95,113.55,91.4,63,98,6.71
255,Anloga,GH,2020-08-02 01:52:18,5.79,0.9,75.2,88,20,12.75
256,Saskylakh,RU,2020-08-02 01:52:18,71.92,114.08,71.65,40,100,8.68
257,Cherskiy,RU,2020-08-02 01:52:18,68.75,161.3,48.72,65,98,9.6
258,Sillamae,EE,2020-08-02 01:52:19,59.4,27.75,59.07,74,98,11.16
259,Chilca,PE,2020-08-02 01:52:19,-12.52,-76.74,60.8,82,90,13.87
260,Kaitangata,NZ,2020-08-02 01:52:19,-46.28,169.85,55.0,70,92,2.24
261,Qaqortoq,GL,2020-08-02 01:52:19,60.72,-46.03,48.2,70,98,3.36
262,Coquimbo,CL,2020-08-02 01:52:19,-29.95,-71.34,51.8,87,10,2.24
263,Sao Joao Da Barra,BR,2020-08-02 01:50:49,-21.64,-41.05,68.16,72,1,5.86
264,Nanortalik,GL,2020-08-02 01:52:20,60.14,-45.24,45.97,94,100,16.4
265,Parfenyevo,RU,2020-08-02 01:52:20,58.48,43.41,49.3,93,47,9.22
266,Te Anau,NZ,2020-08-02 01:52:20,-45.42,167.72,53.28,89,80,3.06
267,Mana,GF,2020-08-02 01:52:20,5.66,-53.78,78.31,88,100,6.6
268,Sitka,US,2020-08-02 01:52:21,57.05,-135.33,62.6,72,90,8.05
269,Maralal,KE,2020-08-02 01:52:21,1.1,36.7,54.81,93,24,4.21
270,Marsh Harbour,BS,2020-08-02 01:52:21,26.54,-77.06,83.26,81,100,29.21
271,East London,ZA,2020-08-02 01:52:21,-33.02,27.91,59.14,52,0,9.64
272,Leh,IN,2020-08-02 01:52:21,34.17,77.58,59.99,43,1,6.24
273,Gonen,TR,2020-08-02 01:52:21,40.1,27.65,75.2,83,2,19.46
274,Arona,ES,2020-08-02 01:52:22,28.1,-16.68,75.0,88,20,3.36
275,Constitucion,CL,2020-08-02 01:52:22,-35.33,-72.42,54.52,92,100,8.86
276,Niquelandia,BR,2020-08-02 01:52:22,-14.47,-48.46,65.52,51,0,4.05
277,Kokopo,PG,2020-08-02 01:52:22,-4.35,152.26,83.12,72,99,11.92
278,Bubaque,GW,2020-08-02 01:52:22,11.28,-15.83,80.64,81,100,11.03
279,Necochea,AR,2020-08-02 01:52:22,-38.55,-58.74,48.99,84,100,11.01
280,Jasper,US,2020-08-02 01:52:23,37.2,-94.35,78.8,57,1,1.97
281,Imeni Zhelyabova,RU,2020-08-02 01:52:23,58.95,36.6,46.17,97,28,4.52
282,Syriam,MM,2020-08-02 01:52:23,16.77,96.24,80.6,94,75,11.41
283,Shellbrook,CA,2020-08-02 01:52:23,53.22,-106.4,75.2,53,20,4.7
284,Haapsalu,EE,2020-08-02 01:52:23,58.94,23.54,48.99,99,77,3.83
285,Nicoya,CR,2020-08-02 01:52:23,10.15,-85.45,77.83,91,93,2.17
286,Litovel,CZ,2020-08-02 01:52:24,49.7,17.08,55.99,87,1,1.97
287,Macau,MO,2020-08-02 01:50:03,22.2,113.55,84.2,88,40,11.41
288,Berlevag,NO,2020-08-02 01:52:24,70.86,29.09,48.54,87,98,6.04
289,Hay River,CA,2020-08-02 01:52:24,60.82,-115.8,87.8,33,20,13.87
290,Yellowknife,CA,2020-08-02 01:52:24,62.46,-114.35,78.8,47,75,13.87
291,Launceston,AU,2020-08-02 01:52:24,-41.45,147.17,57.99,66,90,17.22
292,Sioux Lookout,CA,2020-08-02 01:52:25,50.1,-91.92,66.2,63,40,3.36
293,Hendek,TR,2020-08-02 01:52:25,40.8,30.75,64.4,100,75,1.12
294,Dvinskoy,RU,2020-08-02 01:52:25,62.15,45.12,46.62,93,1,3.53
295,Northam,GB,2020-08-02 01:52:25,51.03,-4.22,60.01,89,0,5.99
296,Talnakh,RU,2020-08-02 01:52:29,69.49,88.4,66.2,59,100,13.42
297,Dusti,TJ,2020-08-02 01:52:29,37.35,68.66,69.8,64,20,1.54
298,Leningradskiy,RU,2020-08-02 01:52:29,69.38,178.42,42.48,72,96,5.95
299,Lavrentiya,RU,2020-08-02 01:52:29,65.58,-171.0,46.04,65,99,14.94
300,Safford,US,2020-08-02 01:52:29,32.83,-109.71,82.4,48,75,25.28
301,Hamilton,US,2020-08-02 01:52:30,39.18,-84.53,73.4,94,90,6.93
302,Tias,ES,2020-08-02 01:52:30,28.96,-13.64,73.4,83,2,10.29
303,Makakilo City,US,2020-08-02 01:52:30,21.35,-158.09,89.6,43,40,6.93
304,Abu Samrah,SY,2020-08-02 01:52:30,35.3,37.18,72.79,62,0,9.15
305,San Lawrenz,MT,2020-08-02 01:52:30,36.06,14.2,82.0,74,0,9.17
306,Cidreira,BR,2020-08-02 01:52:30,-30.18,-50.21,59.99,74,0,10.07
307,Kimbe,PG,2020-08-02 01:52:31,-5.55,150.14,88.12,55,4,7.9
308,Kahului,US,2020-08-02 01:52:31,20.89,-156.47,89.6,46,20,24.16
309,Melbu,NO,2020-08-02 01:52:31,68.5,14.83,55.99,87,2,10.0
310,Manokwari,ID,2020-08-02 01:52:31,-0.87,134.08,84.94,69,94,5.73
311,Linhares,BR,2020-08-02 01:49:02,-19.39,-40.07,66.13,89,71,3.96
312,Petauke,ZM,2020-08-02 01:52:32,-14.24,31.33,53.53,82,0,8.86
313,Kidal,ML,2020-08-02 01:52:32,18.44,1.41,89.33,40,0,14.9
314,Tibati,CM,2020-08-02 01:52:32,6.47,12.63,66.29,96,100,1.95
315,Caravelas,BR,2020-08-02 01:52:32,-17.71,-39.25,68.4,85,0,5.55
316,Port Elizabeth,ZA,2020-08-02 01:52:32,-33.92,25.57,53.6,93,0,9.17
317,Smithers,CA,2020-08-02 01:52:32,54.78,-127.17,77.0,41,40,4.7
318,Atar,MR,2020-08-02 01:52:33,20.52,-13.05,97.41,24,0,8.48
319,Richards Bay,ZA,2020-08-02 01:52:33,-28.78,32.04,59.83,87,0,2.93
320,Konza,KE,2020-08-02 01:52:33,-1.74,37.13,53.6,93,75,3.36
321,Gushi,CN,2020-08-02 01:52:33,34.64,109.58,83.39,65,0,4.5
322,Gizo,SB,2020-08-02 01:52:33,-8.1,156.84,82.45,73,13,3.94
323,Imbituba,BR,2020-08-02 01:52:33,-28.24,-48.67,62.6,93,0,4.7
324,Payson,US,2020-08-02 01:52:34,40.04,-111.73,98.01,20,40,5.82
325,Sal Rei,CV,2020-08-02 01:52:34,16.18,-22.92,77.0,83,40,4.7
326,Baoding,CN,2020-08-02 01:51:10,38.85,115.49,89.01,60,16,5.75
327,Buenos Aires,AR,2020-08-02 01:52:34,-34.61,-58.38,63.0,87,100,5.82
328,Ada,US,2020-08-02 01:52:34,43.42,-116.13,98.6,14,1,10.29
329,Goksun,TR,2020-08-02 01:52:34,38.02,36.5,78.8,54,0,9.17
330,Avera,US,2020-08-02 01:52:35,33.19,-82.53,84.2,58,1,3.36
331,Port Macquarie,AU,2020-08-02 01:49:35,-31.43,152.92,66.0,66,0,1.01
332,Banda Aceh,ID,2020-08-02 01:52:35,5.56,95.32,82.54,75,100,11.36
333,Igarka,RU,2020-08-02 01:52:35,67.47,86.58,62.42,61,99,12.26
334,Baiao,BR,2020-08-02 01:52:35,-2.79,-49.67,74.73,66,77,1.19
335,Camopi,GF,2020-08-02 01:52:35,3.17,-52.32,73.63,95,100,3.53
336,Pagudpud,PH,2020-08-02 01:52:36,18.56,120.79,82.4,83,90,4.7
337,Vestmannaeyjar,IS,2020-08-02 01:52:36,63.44,-20.27,51.93,93,95,14.61
338,Santa Rosa,PH,2020-08-02 01:52:36,14.31,121.11,82.4,83,100,6.93
339,Itarema,BR,2020-08-02 01:52:36,-2.92,-39.92,77.79,84,67,12.97
340,Fort Saint James,CA,2020-08-02 01:52:36,54.43,-124.25,76.87,40,31,5.03
341,Parola,IN,2020-08-02 01:52:37,20.88,75.12,81.41,84,17,8.99
342,Osijek,HR,2020-08-02 01:52:37,45.55,18.69,66.0,87,0,4.7
343,Verkhnevilyuysk,RU,2020-08-02 01:52:37,63.45,120.32,75.0,41,0,5.19
344,Vanavara,RU,2020-08-02 01:52:37,60.34,102.28,71.64,48,99,9.4
345,Norman Wells,CA,2020-08-02 01:49:46,65.28,-126.83,87.8,35,20,3.36
346,Yulara,AU,2020-08-02 01:52:38,-25.24,130.99,64.4,20,0,5.82
347,Krasnovka,RU,2020-08-02 01:52:38,48.82,40.09,58.3,73,0,5.08
348,Mackenzie,CA,2020-08-02 01:52:38,55.3,-123.17,78.8,39,1,8.05
349,Baruun-Urt,MN,2020-08-02 01:52:38,46.68,113.28,66.22,60,50,10.31
350,Shenjiamen,CN,2020-08-02 01:52:38,29.96,122.3,82.26,84,25,14.92
351,Kupino,RU,2020-08-02 01:52:38,54.37,77.3,72.36,56,0,3.8
352,Mapiripan,CO,2020-08-02 01:52:39,2.89,-72.13,76.17,75,95,3.78
353,Ust-Koksa,RU,2020-08-02 01:52:39,50.27,85.61,59.18,59,0,0.4
354,Vao,NC,2020-08-02 01:52:39,-22.67,167.48,67.12,72,30,16.96
355,Chirilagua,SV,2020-08-02 01:52:39,13.22,-88.14,77.29,86,99,2.44
356,Mitsamiouli,KM,2020-08-02 01:52:39,-11.38,43.28,76.5,75,0,7.18
357,Matamoros,MX,2020-08-02 01:52:39,25.53,-103.25,87.8,40,75,12.75
358,Pitimbu,BR,2020-08-02 01:52:40,-7.47,-34.81,73.4,100,75,4.7
359,Mhango,TZ,2020-08-02 01:52:40,-3.28,32.85,59.76,71,8,7.38
360,La Sarre,CA,2020-08-02 01:52:40,48.8,-79.2,65.95,77,83,1.5
361,Goure,NE,2020-08-02 01:52:40,13.98,10.27,84.18,52,100,10.71
362,Jaisalmer,IN,2020-08-02 01:52:40,26.91,70.92,90.45,58,64,13.02
363,Nola,IT,2020-08-02 01:52:40,40.92,14.53,78.01,69,13,2.24
364,Mikkeli,FI,2020-08-02 01:52:41,61.69,27.27,52.0,95,99,3.02
365,Santa Maria,BR,2020-08-02 01:49:43,-29.68,-53.81,60.8,93,0,5.82
366,Bengkulu,ID,2020-08-02 01:52:41,-3.8,102.27,80.24,72,97,2.21
367,Coahuayana,MX,2020-08-02 01:52:41,18.73,-103.68,80.6,74,90,1.14
368,Luderitz,NA,2020-08-02 01:52:41,-26.65,15.16,66.2,25,0,8.05
369,Datong,CN,2020-08-02 01:52:41,40.09,113.29,80.38,49,0,8.95
370,The Valley,AI,2020-08-02 01:52:42,18.22,-63.06,82.99,78,20,4.7
371,Taraz,KZ,2020-08-02 01:50:17,42.9,71.37,71.6,43,18,13.42
372,Leshukonskoye,RU,2020-08-02 01:52:42,64.9,45.76,49.96,96,100,7.43
373,Lompoc,US,2020-08-02 01:52:08,34.64,-120.46,69.01,64,0,13.87
374,San Rafael,AR,2020-08-02 01:52:42,-34.62,-68.33,58.21,32,0,13.65
375,Alice Springs,AU,2020-08-02 01:52:42,-23.7,133.88,75.0,13,0,9.17
376,Kovernino,RU,2020-08-02 01:52:43,57.13,43.81,52.95,96,100,7.81
377,Sarmanovo,RU,2020-08-02 01:52:43,55.26,52.59,64.4,82,75,15.66
378,Tsurugi,JP,2020-08-02 01:52:43,36.45,136.63,93.99,66,75,6.93
379,Kiruna,SE,2020-08-02 01:51:23,67.86,20.23,48.2,93,54,2.82
380,Banjar,ID,2020-08-02 01:52:43,-8.19,114.97,77.0,88,40,4.7
381,San Matias,BO,2020-08-02 01:52:43,-16.37,-58.4,75.72,35,0,4.16
382,Labis,MY,2020-08-02 01:48:27,2.38,103.02,82.26,77,100,5.26
383,Taoudenni,ML,2020-08-02 01:52:44,22.68,-3.98,99.07,11,0,4.21
384,Betul,IN,2020-08-02 01:52:44,21.92,77.9,80.19,77,80,2.15
385,Bloomingdale,US,2020-08-02 01:52:44,27.89,-82.24,88.0,58,90,6.93
386,Dingle,PH,2020-08-02 01:52:44,11.0,122.67,83.26,73,100,4.47
387,Tual,ID,2020-08-02 01:52:45,-5.67,132.75,77.81,81,62,18.48
388,Ballina,AU,2020-08-02 01:52:45,-28.87,153.57,68.0,60,0,5.82
389,Codrington,AU,2020-08-02 01:52:45,-38.27,141.97,55.33,72,100,10.25
390,Ugoofaaru,MV,2020-08-02 01:52:45,5.67,73.0,83.03,76,100,14.09
391,Shubarkuduk,KZ,2020-08-02 01:52:45,49.14,56.49,77.61,24,0,6.29
392,Fort Myers Beach,US,2020-08-02 01:48:57,26.45,-81.95,80.01,78,75,19.46
393,Takoradi,GH,2020-08-02 01:52:46,4.88,-1.76,73.74,83,55,8.16
394,Verkhovazhye,RU,2020-08-02 01:52:46,60.75,42.05,45.55,96,4,4.18
395,Alyangula,AU,2020-08-02 01:52:46,-13.85,136.42,80.6,51,9,12.75
396,Cine,TR,2020-08-02 01:52:46,37.61,28.06,77.0,53,0,1.12
397,Lakatoro,VU,2020-08-02 01:52:46,-16.1,167.42,77.0,94,90,6.93
398,Tongliao,CN,2020-08-02 01:52:46,43.61,122.27,87.37,59,33,15.17
399,Ewa Beach,US,2020-08-02 01:52:47,21.32,-158.01,89.6,43,40,6.93
400,Nalut,LY,2020-08-02 01:52:47,30.33,10.85,76.21,23,0,11.81
401,Mackay,AU,2020-08-02 01:52:47,-21.15,149.2,71.6,64,28,20.8
402,Brae,GB,2020-08-02 01:52:47,60.4,-1.35,51.8,100,91,5.82
403,Natal,BR,2020-08-02 01:52:48,-5.79,-35.21,73.4,94,40,8.05
404,Mattru,SL,2020-08-02 01:52:48,7.62,-11.83,72.34,97,100,4.05
405,Rock Sound,BS,2020-08-02 01:52:48,24.9,-76.2,84.11,82,100,29.04
406,Bilma,NE,2020-08-02 01:52:48,18.69,12.92,90.9,36,90,7.58
407,Santo Amaro Da Imperatriz,BR,2020-08-02 01:52:35,-27.69,-48.78,62.6,93,0,4.7
408,Acapulco,MX,2020-08-02 01:52:37,16.86,-99.89,86.0,79,75,10.29
409,Nakhon Phanom,TH,2020-08-02 01:52:48,17.41,104.78,75.2,100,75,5.82
410,Galesong,ID,2020-08-02 01:52:49,-5.32,119.37,86.0,55,20,3.36
411,Mouzouras,GR,2020-08-02 01:52:49,35.53,24.15,78.8,78,0,1.03
412,Kieta,PG,2020-08-02 01:52:49,-6.22,155.63,83.98,67,15,4.45
413,Jacqueville,CI,2020-08-02 01:52:49,5.21,-4.41,77.0,88,40,6.93
414,Peniche,PT,2020-08-02 01:52:49,39.36,-9.38,64.0,88,0,5.01
415,Sibolga,ID,2020-08-02 01:52:50,1.74,98.78,82.45,69,99,1.12
416,Ayagoz,KZ,2020-08-02 01:52:50,47.97,80.44,68.79,46,0,17.2
417,Dongying,CN,2020-08-02 01:52:50,37.46,118.49,77.32,86,100,4.27
418,Laguna,US,2020-08-02 01:49:41,38.42,-121.42,95.0,26,1,9.17
419,Prachuap Khiri Khan,TH,2020-08-02 01:52:50,11.82,99.78,78.76,84,100,17.96
420,Fare,PF,2020-08-02 01:52:50,-16.7,-151.02,79.48,78,0,13.71
421,Rodrigues Alves,BR,2020-08-02 01:52:51,-7.74,-72.65,74.23,64,76,1.25
422,La Orilla,MX,2020-08-02 01:52:51,17.98,-102.23,81.3,80,0,5.66
423,Honningsvag,NO,2020-08-02 01:52:51,70.98,25.97,50.09,83,98,7.09
424,Yelets,RU,2020-08-02 01:52:51,52.62,38.5,52.14,94,56,4.21
425,Sabang,ID,2020-08-02 01:52:51,5.89,95.32,82.96,77,100,20.33
426,Porbandar,IN,2020-08-02 01:52:51,21.64,69.61,84.67,81,35,5.48
427,Pemangkat,ID,2020-08-02 01:52:52,1.17,108.97,82.15,78,45,7.0
428,Tombouctou,ML,2020-08-02 01:52:52,20.0,-3.0,95.97,33,0,17.49
429,Magadi,IN,2020-08-02 01:52:52,12.97,77.23,71.6,94,75,13.87
430,Pijijiapan,MX,2020-08-02 01:52:52,15.7,-93.23,79.74,82,33,1.81
431,Oranjestad,AW,2020-08-02 01:52:30,12.52,-70.03,84.2,83,20,18.34
432,Aklavik,CA,2020-08-02 01:52:52,68.22,-135.01,62.6,67,40,16.11
433,Kalmunai,LK,2020-08-02 01:52:53,7.42,81.82,81.55,71,80,8.21
434,Cross Lanes,US,2020-08-02 01:52:53,38.42,-81.79,75.99,88,40,3.36
435,Kuryk,KZ,2020-08-02 01:52:53,43.2,51.65,74.57,38,10,4.21
436,Sinnamary,GF,2020-08-02 01:52:53,5.38,-52.95,78.64,87,100,7.2
437,Sistranda,NO,2020-08-02 01:52:53,63.73,8.83,57.2,93,40,9.17
438,Hailar,CN,2020-08-02 01:52:54,49.2,119.7,81.1,44,3,10.45
439,Ulaangom,MN,2020-08-02 01:52:54,49.98,92.07,60.33,58,36,3.8
440,Victor Harbor,AU,2020-08-02 01:52:54,-35.57,138.62,57.0,89,100,1.86
441,Dubrovnik,HR,2020-08-02 01:52:25,42.65,18.09,82.4,39,0,25.28
442,Sechura,PE,2020-08-02 01:52:54,-5.56,-80.82,63.45,80,0,13.62
443,San Nicolas,PH,2020-08-02 01:52:54,18.17,120.6,82.4,83,90,4.7
444,Hilton Head Island,US,2020-08-02 01:52:55,32.22,-80.75,86.0,79,1,6.93
445,Vestmanna,FO,2020-08-02 01:52:55,62.16,-7.17,50.0,100,78,13.87
446,Camacupa,AO,2020-08-02 01:52:55,-12.02,17.48,50.27,65,74,2.55
447,Puerto Baquerizo Moreno,EC,2020-08-02 01:52:55,-0.9,-89.6,67.82,91,94,10.31
448,Athabasca,CA,2020-08-02 01:52:55,54.72,-113.29,73.17,77,97,8.28
449,Hervey Bay,AU,2020-08-02 01:52:56,-25.3,152.85,68.0,71,30,4.0
450,Kutum,SD,2020-08-02 01:52:56,14.2,24.67,67.46,87,100,4.76
451,Dicabisagan,PH,2020-08-02 01:52:56,17.08,122.42,84.65,63,100,1.92
452,Erenhot,CN,2020-08-02 01:52:56,43.65,111.98,71.83,45,69,21.72
453,Kivertsi,UA,2020-08-02 01:52:56,50.83,25.46,50.0,98,0,4.99
454,Karlshamn,SE,2020-08-02 01:52:56,56.17,14.86,62.01,100,94,4.7
455,Taltal,CL,2020-08-02 01:52:57,-25.4,-70.48,55.15,74,16,6.2
456,Acajutla,SV,2020-08-02 01:52:57,13.59,-89.83,75.99,98,6,4.47
457,Chicama,PE,2020-08-02 01:52:57,-7.84,-79.15,61.09,85,43,6.17
458,Beloha,MG,2020-08-02 01:52:57,-25.17,45.05,58.32,81,0,10.33
459,Grand Forks,US,2020-08-02 01:52:57,47.93,-97.03,73.4,56,20,12.75
460,Moctezuma,MX,2020-08-02 01:52:57,29.8,-109.67,76.55,68,100,1.28
461,Awbari,LY,2020-08-02 01:52:58,26.59,12.78,80.85,16,0,7.94
462,Mertoyudan,ID,2020-08-02 01:52:58,-7.52,110.23,82.4,78,67,6.93
463,Khanpur,PK,2020-08-02 01:52:58,28.65,70.66,97.0,42,3,12.53
464,Isangel,VU,2020-08-02 01:52:58,-19.55,169.27,75.2,78,90,17.22
465,Irece,BR,2020-08-02 01:49:36,-11.3,-41.86,63.21,80,0,13.04
466,Vozhega,RU,2020-08-02 01:52:58,60.47,40.22,44.62,98,5,3.78
467,High Level,CA,2020-08-02 01:52:59,58.52,-117.14,84.2,51,20,12.75
468,Sines,PT,2020-08-02 01:52:59,37.96,-8.87,63.0,83,0,5.01
469,Blitar,ID,2020-08-02 01:52:59,-8.1,112.17,78.98,62,9,7.47
470,Ormara,PK,2020-08-02 01:53:03,25.21,64.64,84.38,81,100,8.21
471,Vanimo,PG,2020-08-02 01:53:03,-2.67,141.3,76.23,89,100,7.02
472,San Ramon,US,2020-08-02 01:48:52,37.78,-121.98,86.0,30,1,10.29
473,Jalu,LY,2020-08-02 01:53:03,29.03,21.55,76.46,70,0,11.3
474,Belokurikha,RU,2020-08-02 01:53:03,52.0,84.99,68.27,61,41,3.53
475,Fairbanks,US,2020-08-02 01:49:29,64.84,-147.72,77.0,47,90,3.36
476,Poso,ID,2020-08-02 01:53:04,-1.4,120.75,82.44,76,15,1.16
477,Sao Felix Do Xingu,BR,2020-08-02 01:53:04,-6.64,-51.99,70.83,51,27,1.72
478,Bathsheba,BB,2020-08-02 01:53:04,13.22,-59.52,80.6,83,20,5.82
479,Ostrovnoy,RU,2020-08-02 01:53:04,68.05,39.51,51.15,89,100,16.13
480,Mayo,US,2020-08-02 01:53:04,38.89,-76.51,82.99,74,75,8.05
481,Gazanjyk,TM,2020-08-02 01:53:05,39.24,55.52,80.01,25,0,9.69
482,Wajir,KE,2020-08-02 01:53:05,1.75,40.06,70.39,78,0,10.22
483,Taboao Da Serra,BR,2020-08-02 01:53:05,-23.63,-46.79,61.0,82,75,5.82
484,Sept-Iles,CA,2020-08-02 01:53:05,50.2,-66.38,69.01,72,5,6.93
485,Guaratinga,BR,2020-08-02 01:53:05,-16.57,-39.57,68.0,88,40,3.36
486,Palana,RU,2020-08-02 01:53:05,59.12,159.97,56.12,67,1,8.14
487,Callaway,US,2020-08-02 01:53:06,30.15,-85.57,82.0,78,1,3.36
488,Padampur,IN,2020-08-02 01:53:06,29.68,73.62,97.43,40,1,9.71
489,Bandar-E Lengeh,IR,2020-08-02 01:53:06,26.56,54.88,86.9,80,24,20.62
490,Paamiut,GL,2020-08-02 01:53:06,61.99,-49.67,45.61,97,100,13.31
491,Changji,CN,2020-08-02 01:50:32,44.02,87.32,80.6,28,0,2.24
492,Ouricuri,BR,2020-08-02 01:53:06,-7.88,-40.08,71.15,62,53,7.4
493,Salmo,CA,2020-08-02 01:53:07,49.2,-117.27,84.99,54,47,2.39
494,San Cristobal,VE,2020-08-02 01:53:07,7.77,-72.22,66.85,88,24,4.41
495,Balkhash,KZ,2020-08-02 01:53:07,46.84,74.98,73.4,38,100,22.37
496,Nabire,ID,2020-08-02 01:53:07,-3.37,135.48,77.18,88,100,2.91
497,Salinas,US,2020-08-02 01:49:55,36.68,-121.66,71.01,64,1,14.99
498,Trat,TH,2020-08-02 01:53:08,12.5,102.5,77.09,94,100,8.75
499,North Bend,US,2020-08-02 01:53:08,43.41,-124.22,66.2,72,1,12.75
500,Broome,US,2020-08-02 01:53:08,42.25,-75.83,75.2,53,75,3.36
501,Shache,CN,2020-08-02 01:53:08,38.42,77.24,83.86,14,100,11.92
502,Pisco,PE,2020-08-02 01:53:08,-13.7,-76.22,60.8,82,0,11.41
503,Oranjemund,NA,2020-08-02 01:53:09,-28.55,16.43,66.72,27,0,4.88
504,Roald,NO,2020-08-02 01:53:09,62.58,6.13,60.8,87,82,8.05
505,Saquarema,BR,2020-08-02 01:53:09,-22.92,-42.51,69.8,68,75,2.24
506,Asau,RO,2020-08-02 01:53:09,46.43,26.4,53.01,90,17,2.39
507,Bedele,ET,2020-08-02 01:53:09,8.46,36.35,54.68,100,98,0.94
508,Yaring,TH,2020-08-02 01:53:10,6.87,101.37,78.8,88,75,4.7
509,Charters Towers,AU,2020-08-02 01:53:10,-20.1,146.27,72.63,44,0,11.5
510,Beringovskiy,RU,2020-08-02 01:53:10,63.05,179.32,50.58,80,100,12.35
511,Elizabethtown,US,2020-08-02 01:48:24,37.69,-85.86,71.6,100,90,9.17
512,Manakara,MG,2020-08-02 01:53:10,-22.13,48.02,65.14,84,73,5.7
513,Paranga,RU,2020-08-02 01:53:10,56.7,49.4,57.06,98,99,1.61
514,Cap Malheureux,MU,2020-08-02 01:53:11,-19.98,57.61,68.0,87,87,7.0
515,Khingansk,RU,2020-08-02 01:53:11,49.12,131.18,81.99,56,85,4.68
516,Susangerd,IR,2020-08-02 01:53:11,31.56,48.18,93.2,79,0,4.7
517,Treinta Y Tres,UY,2020-08-02 01:53:11,-33.23,-54.38,51.73,93,99,7.38
518,Sayyan,YE,2020-08-02 01:53:11,15.17,44.32,59.63,86,41,3.89
519,Pangody,RU,2020-08-02 01:53:12,65.85,74.49,60.57,87,66,9.57
520,Lasa,IT,2020-08-02 01:53:12,46.62,10.7,62.01,93,75,5.82
521,Quartucciu,IT,2020-08-02 01:53:12,39.25,9.18,81.0,74,0,9.17
522,Dawei,MM,2020-08-02 01:53:12,14.08,98.2,78.64,90,100,12.48
523,Conceicao Do Araguaia,BR,2020-08-02 01:53:12,-8.26,-49.26,78.8,54,49,5.82
524,Haines Junction,CA,2020-08-02 01:53:12,60.75,-137.51,66.69,43,70,12.33
525,Fountain Hills,US,2020-08-02 01:53:13,33.61,-111.72,109.0,20,1,6.93
526,Batemans Bay,AU,2020-08-02 01:53:13,-35.72,150.18,62.01,70,4,2.51
527,Palmer,US,2020-08-02 01:53:13,42.16,-72.33,79.0,65,75,3.36
528,Kudahuvadhoo,MV,2020-08-02 01:53:13,2.67,72.89,82.92,78,100,12.82
529,Howard Springs,AU,2020-08-02 01:53:13,-12.5,131.05,82.0,36,0,12.75
530,Caconda,AO,2020-08-02 01:53:14,-13.73,15.07,51.58,51,0,3.71
531,Brus Laguna,HN,2020-08-02 01:53:14,15.75,-84.48,78.73,90,0,3.58
532,Olinda,BR,2020-08-02 01:51:20,-8.01,-34.86,78.8,78,40,9.17
533,Vardo,NO,2020-08-02 01:53:14,70.37,31.11,49.28,87,100,12.24
534,Pittsburg,US,2020-08-02 01:53:14,38.03,-121.88,87.8,23,1,11.41
535,Mbuji-Mayi,CD,2020-08-02 01:53:14,-6.15,23.6,73.76,44,33,4.47
536,Olafsvik,IS,2020-08-02 01:53:15,64.89,-23.71,47.64,90,100,18.54
537,Sulphur,US,2020-08-02 01:51:12,30.24,-93.38,79.0,88,1,1.25
538,Hurghada,EG,2020-08-02 01:53:15,27.26,33.81,87.8,27,0,5.82
539,Cedar City,US,2020-08-02 01:52:45,37.68,-113.06,95.0,4,1,10.29
540,Gat,IL,2020-08-02 01:53:04,31.61,34.76,75.0,69,0,5.75
541,Malokaterynivka,UA,2020-08-02 01:53:15,47.65,35.25,62.01,82,0,4.47
542,Ryotsu,JP,2020-08-02 01:53:16,38.08,138.43,80.6,78,20,6.93
543,Bitung,ID,2020-08-02 01:53:16,1.45,125.18,75.2,94,75,4.7
544,Narsaq,GL,2020-08-02 01:53:16,60.92,-46.05,48.2,70,99,3.36
545,Hibbing,US,2020-08-02 01:53:16,47.43,-92.94,69.8,73,1,10.29
546,Tessalit,ML,2020-08-02 01:53:16,20.2,1.01,91.96,34,0,12.41
547,Dumabato,PH,2020-08-02 01:53:16,16.32,121.7,80.92,70,100,1.25
548,Mati,PH,2020-08-02 01:53:17,6.96,126.22,82.4,74,75,9.17
549,Husavik,IS,2020-08-02 01:53:17,66.04,-17.34,51.8,93,20,2.24
550,Homer,US,2020-08-02 01:49:02,59.64,-151.55,57.2,93,90,3.36
551,Abnub,EG,2020-08-02 01:53:17,27.27,31.15,80.6,42,0,5.82
552,Muros,ES,2020-08-02 01:53:17,42.78,-9.06,60.01,93,20,5.82
553,Road Town,VG,2020-08-02 01:53:17,18.42,-64.62,82.0,89,6,1.99
554,Khangah Dogran,PK,2020-08-02 01:53:18,31.83,73.62,88.74,61,1,9.06
555,Bulgan,MN,2020-08-02 01:53:18,48.81,103.53,61.99,69,100,8.52
556,Buta,CD,2020-08-02 01:53:18,2.79,24.73,70.05,98,100,1.9
557,Tucupita,VE,2020-08-02 01:53:18,9.06,-62.05,75.52,97,100,3.4
558,Kulu,TR,2020-08-02 01:53:18,39.1,33.08,68.16,59,0,9.01
559,Medea,DZ,2020-08-02 01:53:18,36.26,2.75,73.4,83,3,2.21
560,Axim,GH,2020-08-02 01:53:19,4.87,-2.24,73.76,84,13,7.9
561,Luwuk,ID,2020-08-02 01:53:19,-0.95,122.79,79.75,78,100,5.21
562,Ucluelet,CA,2020-08-02 01:53:19,48.93,-125.55,66.99,88,75,5.82
563,Idukki,IN,2020-08-02 01:53:19,9.85,76.97,69.4,93,100,3.42
564,Chimore,BO,2020-08-02 01:53:20,-16.98,-65.13,70.29,58,0,3.22
565,Greenwood,US,2020-08-02 01:52:46,34.17,-82.12,84.2,62,1,9.17
566,Havoysund,NO,2020-08-02 01:53:20,71.0,24.66,48.2,87,83,9.17
567,Muyezerskiy,RU,2020-08-02 01:53:20,63.93,31.65,50.18,87,90,0.56
568,Kampene,CD,2020-08-02 01:53:20,-3.6,26.67,73.69,58,50,0.49
569,La Rioja,ES,2020-08-02 01:51:09,42.25,-2.5,68.0,72,90,8.05
570,Kulhudhuffushi,MV,2020-08-02 01:53:21,6.62,73.07,82.83,78,100,15.59
571,Aquiraz,BR,2020-08-02 01:50:03,-3.9,-38.39,78.8,83,71,6.93
572,Champerico,GT,2020-08-02 01:53:21,14.3,-91.92,83.21,73,9,3.49
573,Dharmanagar,IN,2020-08-02 01:53:21,24.37,92.17,86.23,78,77,1.19
574,Kuchinarai,TH,2020-08-02 01:53:21,16.54,104.05,81.0,100,90,8.05
575,Alexandria,EG,2020-08-02 01:49:44,31.22,29.96,78.91,80,0,7.58
576,Guildford,GB,2020-08-02 01:53:22,51.24,-0.57,59.0,78,62,1.99
577,Ust-Tsilma,RU,2020-08-02 01:53:22,65.44,52.15,50.52,87,8,3.85
578,Storforshei,NO,2020-08-02 01:53:22,66.4,14.52,55.0,81,0,3.0
579,Chegdomyn,RU,2020-08-02 01:53:22,51.12,133.02,72.99,88,58,1.39
580,Kemin,KG,2020-08-02 01:53:23,42.78,75.69,65.73,68,100,1.57
581,Matai,TZ,2020-08-02 01:53:23,-8.3,31.52,50.95,79,100,8.66
582,Port Hardy,CA,2020-08-02 01:53:23,50.7,-127.42,75.2,47,75,11.41
583,Kisanga,TZ,2020-08-02 01:53:23,-7.44,37.7,65.68,74,60,2.75
584,Kincardine,GB,2020-08-02 01:53:23,56.07,-3.72,55.0,100,20,6.93
585,Ossora,RU,2020-08-02 01:53:23,59.24,163.07,64.67,56,2,9.89
586,Redwater,US,2020-08-02 01:53:24,33.36,-94.25,79.0,69,1,3.85
587,Zabalj,RS,2020-08-02 01:53:24,45.37,20.06,64.4,87,0,1.12
588,Saint-Pierre,RE,2020-08-02 01:53:24,-21.34,55.48,68.0,72,90,9.17
589,Kloulklubed,PW,2020-08-02 01:53:24,7.04,134.26,82.4,83,75,5.82
590,Yar-Sale,RU,2020-08-02 01:53:24,66.83,70.83,59.63,83,18,9.28
591,Mecca,SA,2020-08-02 01:53:25,21.43,39.83,84.76,58,88,16.8
592,Leon Valley,US,2020-08-02 01:53:25,29.5,-98.62,91.4,43,20,16.11
593,Nuuk,GL,2020-08-02 01:53:25,64.18,-51.72,46.4,100,100,11.41
594,Pangai,TO,2020-08-02 01:53:25,-19.8,-174.35,73.26,72,89,16.22
595,Kaoma,ZM,2020-08-02 01:53:25,-14.78,24.8,44.33,60,0,6.42
596,Borisovka,RU,2020-08-02 01:53:25,50.62,35.99,55.4,93,21,8.95
597,Lerwick,GB,2020-08-02 01:53:26,60.15,-1.15,51.8,100,98,5.82
598,Shelton,US,2020-08-02 01:53:26,41.32,-73.09,80.6,69,1,9.17
599,Kamina,CD,2020-08-02 01:53:26,-8.74,24.99,61.92,51,43,5.3
600,Iquique,CL,2020-08-02 01:53:26,-20.22,-70.14,60.8,72,90,6.93
601,Conneaut,US,2020-08-02 01:53:26,41.95,-80.55,71.6,94,1,6.93
