City_ID,City,Country,Date,Lat,Lng,Max Temp,Humidity,Cloudiness,Wind Speed
0,Rikitea,PF,2020-08-01 17:54:29,-23.12,-134.97,73.58,79,85,6.49
1,Busselton,AU,2020-08-01 17:54:30,-33.65,115.33,50.0,81,80,1.77
2,Esperance,AU,2020-08-01 17:50:31,-33.87,121.9,46.4,87,81,10.29
3,Hilo,US,2020-08-01 17:50:09,19.73,-155.09,72.0,88,90,3.36
4,Butaritari,KI,2020-08-01 17:54:30,3.07,172.79,82.99,79,59,14.56
5,Clyde River,CA,2020-08-01 17:51:23,70.47,-68.59,46.4,87,90,5.82
6,Lebu,CL,2020-08-01 17:54:30,-37.62,-73.65,53.47,92,97,10.02
7,Zyryanskoye,RU,2020-08-01 17:54:31,56.83,86.63,56.21,90,5,5.37
8,Negombo,LK,2020-08-01 17:54:31,7.21,79.84,82.4,83,75,12.75
9,Kihei,US,2020-08-01 17:54:31,20.79,-156.47,77.0,65,20,6.93
10,Phuthaditjhaba,ZA,2020-08-01 17:54:31,-28.52,28.82,51.76,39,0,3.83
11,Albany,US,2020-08-01 17:49:46,42.6,-73.97,89.01,37,41,2.24
12,Saint-Pierre,RE,2020-08-01 17:50:25,-21.34,55.48,69.8,77,75,17.22
13,Sobolevo,RU,2020-08-01 17:54:32,54.43,31.9,55.89,82,96,10.49
14,Nikolskoye,RU,2020-08-01 17:54:32,59.7,30.79,64.4,48,20,6.71
15,Galle,LK,2020-08-01 17:54:32,6.04,80.22,79.57,88,28,10.45
16,Visnes,NO,2020-08-01 17:54:32,59.36,5.22,66.2,68,94,14.99
17,Chuy,UY,2020-08-01 17:54:32,-33.7,-53.46,59.25,72,13,7.83
18,Souillac,MU,2020-08-01 17:54:33,-20.52,57.52,71.6,83,75,11.41
19,Portland,US,2020-08-01 17:54:33,45.52,-122.68,69.01,72,90,5.82
20,Yellowknife,CA,2020-08-01 17:54:33,62.46,-114.35,73.99,68,75,12.75
21,Jamestown,US,2020-08-01 17:49:56,42.1,-79.24,78.01,73,20,4.7
22,Atuona,PF,2020-08-01 17:54:33,-9.8,-139.03,79.43,73,69,16.4
23,Geraldton,AU,2020-08-01 17:54:34,-28.77,114.6,46.4,93,96,8.05
24,San Jose,US,2020-08-01 17:51:07,37.34,-121.89,77.0,56,0,5.03
25,Coquimbo,CL,2020-08-01 17:53:56,-29.95,-71.34,59.0,72,20,9.17
26,Bima,ID,2020-08-01 17:54:34,-8.47,118.72,68.36,88,2,3.8
27,Kalengwa,ZM,2020-08-01 17:54:37,-13.47,25.0,62.2,31,0,6.91
28,Lompoc,US,2020-08-01 17:50:33,34.64,-120.46,62.6,82,0,8.05
29,Bengkulu,ID,2020-08-01 17:54:37,-3.8,102.27,74.84,90,74,4.61
30,Acurenam,GQ,2020-08-01 17:54:38,1.03,10.65,70.65,91,84,4.81
31,Lagoa,PT,2020-08-01 17:51:04,39.05,-27.98,70.92,69,0,8.84
32,Dunedin,NZ,2020-08-01 17:54:38,-45.87,170.5,48.99,87,28,5.01
33,Coihaique,CL,2020-08-01 17:54:38,-45.58,-72.07,42.8,93,75,6.93
34,Upernavik,GL,2020-08-01 17:50:17,72.79,-56.15,42.8,65,8,13.56
35,Hamilton,US,2020-08-01 17:50:04,39.18,-84.53,84.99,78,90,10.29
36,Saldanha,ZA,2020-08-01 17:54:39,-33.01,17.94,66.2,55,0,2.24
37,Kodiak,US,2020-08-01 17:54:39,57.79,-152.41,53.6,93,90,3.36
38,Hithadhoo,MV,2020-08-01 17:53:27,-0.6,73.08,82.98,74,48,9.69
39,New Norfolk,AU,2020-08-01 17:54:39,-42.78,147.06,53.01,74,29,4.0
40,Kaspiysk,RU,2020-08-01 17:54:39,42.88,47.64,73.4,73,46,6.71
41,Tuktoyaktuk,CA,2020-08-01 17:54:40,69.45,-133.04,53.6,93,90,16.11
42,Saint George,US,2020-08-01 17:51:51,37.1,-113.58,100.99,16,1,4.9
43,Te Anau,NZ,2020-08-01 17:54:40,-45.42,167.72,50.36,92,99,2.64
44,Puerto Ayora,EC,2020-08-01 17:54:40,-0.74,-90.35,78.8,61,40,25.28
45,Ilulissat,GL,2020-08-01 17:54:40,69.22,-51.1,46.4,81,75,3.36
46,Avarua,CK,2020-08-01 17:50:16,-21.21,-159.78,59.0,93,23,2.24
47,Tuatapere,NZ,2020-08-01 17:50:24,-46.13,167.68,49.84,89,99,4.29
48,Mackay,AU,2020-08-01 17:54:41,-21.15,149.2,57.2,93,40,8.05
49,Gat,IL,2020-08-01 17:50:03,31.61,34.76,84.0,82,0,5.26
50,Vaini,TO,2020-08-01 17:54:41,-21.2,-175.2,68.0,88,75,9.17
51,Gravdal,NO,2020-08-01 17:54:41,68.12,13.5,59.23,79,23,7.74
52,Bredasdorp,ZA,2020-08-01 17:50:49,-34.53,20.04,51.8,87,0,4.7
53,Ushuaia,AR,2020-08-01 17:54:06,-54.8,-68.3,42.8,81,40,4.7
54,Puerto Del Rosario,ES,2020-08-01 17:54:42,28.5,-13.86,77.0,78,20,6.93
55,Port Elizabeth,ZA,2020-08-01 17:54:42,-33.92,25.57,51.8,93,0,3.6
56,Torbay,CA,2020-08-01 17:54:43,47.67,-52.73,72.0,88,75,9.17
57,Bambous Virieux,MU,2020-08-01 17:54:43,-20.34,57.76,71.6,83,75,11.41
58,Sakakah,SA,2020-08-01 17:54:43,29.97,40.21,98.6,11,0,10.29
59,Airai,TL,2020-08-01 17:54:43,-8.93,125.41,52.88,63,1,3.62
60,Hasaki,JP,2020-08-01 17:54:43,35.73,140.83,72.0,94,40,10.29
61,Urumqi,CN,2020-08-01 17:54:44,43.8,87.6,77.0,33,71,2.24
62,Kapaa,US,2020-08-01 17:54:44,22.08,-159.32,77.0,88,75,11.41
63,Georgetown,MY,2020-08-01 17:54:44,5.41,100.34,82.4,78,20,2.42
64,Narsaq,GL,2020-08-01 17:54:44,60.92,-46.05,55.4,58,75,8.05
65,Hermanus,ZA,2020-08-01 17:54:44,-34.42,19.23,57.0,86,0,5.99
66,Cape Town,ZA,2020-08-01 17:50:35,-33.93,18.42,57.99,82,0,2.24
67,Khawhai,IN,2020-08-01 17:54:45,23.37,93.12,65.62,100,100,0.38
68,Gijon,ES,2020-08-01 17:54:45,43.54,-5.66,66.0,78,86,5.01
69,Castro,BR,2020-08-01 17:54:45,-24.79,-50.01,67.89,52,25,4.79
70,Escanaba,US,2020-08-01 17:54:45,45.75,-87.06,78.01,64,1,10.29
71,Leh,IN,2020-08-01 17:54:45,34.17,77.58,65.62,33,30,6.35
72,Provideniya,RU,2020-08-01 17:51:07,64.38,-173.3,45.23,75,0,7.14
73,Severo-Kurilsk,RU,2020-08-01 17:50:22,50.68,156.12,52.14,86,63,12.33
74,Khatanga,RU,2020-08-01 17:54:46,71.97,102.5,64.45,61,100,7.27
75,Chokurdakh,RU,2020-08-01 17:54:46,70.63,147.92,52.41,71,97,4.09
76,Hobart,AU,2020-08-01 17:53:37,-42.88,147.33,53.01,62,75,8.05
77,Ereymentau,KZ,2020-08-01 17:54:46,51.62,73.1,70.23,50,0,8.01
78,Kudahuvadhoo,MV,2020-08-01 17:54:47,2.67,72.89,83.48,74,81,11.12
79,Oksfjord,NO,2020-08-01 17:54:47,70.24,22.35,60.8,67,88,9.17
80,San Patricio,MX,2020-08-01 17:50:19,19.22,-104.7,86.0,74,40,11.41
81,Merauke,ID,2020-08-01 17:50:38,-8.47,140.33,72.64,79,78,13.56
82,Barranca,PE,2020-08-01 17:54:48,-10.75,-77.77,64.51,72,75,8.37
83,Pisco,PE,2020-08-01 17:52:17,-13.7,-76.22,63.0,77,27,11.41
84,Zarand,IR,2020-08-01 17:54:48,30.81,56.56,76.77,39,67,7.99
85,Luderitz,NA,2020-08-01 17:54:48,-26.65,15.16,78.8,16,0,4.7
86,Khani,GE,2020-08-01 17:54:48,41.96,42.96,73.4,94,90,2.24
87,Fuerte Olimpo,PY,2020-08-01 17:54:49,-21.04,-57.87,95.07,21,0,10.02
88,Maningrida,AU,2020-08-01 17:54:49,-12.07,134.27,62.94,90,13,8.03
89,Mataura,NZ,2020-08-01 17:54:49,-46.19,168.86,47.7,84,78,3.78
90,Urmary,RU,2020-08-01 17:54:49,55.68,47.94,59.0,93,75,4.47
91,Ostrovnoy,RU,2020-08-01 17:54:50,68.05,39.51,52.02,90,86,13.67
92,Qandala,SO,2020-08-01 17:54:50,11.47,49.87,89.06,58,48,16.46
93,Cherskiy,RU,2020-08-01 17:54:50,68.75,161.3,40.19,86,81,10.07
94,Dikson,RU,2020-08-01 17:54:50,73.51,80.55,51.4,95,71,12.97
95,Saint-Philippe,RE,2020-08-01 17:50:50,-21.36,55.77,69.8,77,75,17.22
96,Kutum,SD,2020-08-01 17:53:19,14.2,24.67,69.06,83,100,15.64
97,Alofi,NU,2020-08-01 17:54:51,-19.06,-169.92,60.8,93,62,3.36
98,Kruisfontein,ZA,2020-08-01 17:54:51,-34.0,24.73,54.0,88,0,4.09
99,Superior,US,2020-08-01 17:54:51,46.72,-92.1,77.0,69,75,4.7
100,Orbetello,IT,2020-08-01 17:54:51,42.44,11.22,93.2,30,20,11.41
101,Halifax,CA,2020-08-01 17:52:01,44.65,-63.57,79.0,54,34,3.0
102,Sorland,NO,2020-08-01 17:54:52,67.67,12.69,56.75,87,52,12.12
103,Tabou,CI,2020-08-01 17:54:52,4.42,-7.35,75.7,81,99,10.92
104,Grindavik,IS,2020-08-01 17:54:52,63.84,-22.43,53.6,81,90,11.41
105,Sidi Ali,DZ,2020-08-01 17:54:53,36.1,0.42,84.43,50,0,5.99
106,Cayenne,GF,2020-08-01 17:54:53,4.93,-52.33,86.0,74,60,5.82
107,Pangody,RU,2020-08-01 17:54:53,65.85,74.49,58.39,81,95,16.22
108,Chiredzi,ZW,2020-08-01 17:54:53,-21.05,31.67,64.56,48,0,4.68
109,Iqaluit,CA,2020-08-01 17:54:54,63.75,-68.51,60.8,67,75,19.46
110,Zyryanka,RU,2020-08-01 17:54:54,65.75,150.85,47.46,83,71,5.48
111,Port Lincoln,AU,2020-08-01 17:54:54,-34.73,135.87,54.97,89,18,5.79
112,Tasiilaq,GL,2020-08-01 17:54:54,65.61,-37.64,57.2,30,20,3.36
113,West Bay,KY,2020-08-01 17:54:55,19.37,-81.42,88.0,79,20,6.93
114,Norman,US,2020-08-01 17:54:55,35.22,-97.44,84.99,51,40,10.29
115,East London,ZA,2020-08-01 17:54:55,-33.02,27.91,62.98,66,0,4.99
116,Thompson,CA,2020-08-01 17:54:55,55.74,-97.86,68.0,45,20,8.05
117,Cernat,RO,2020-08-01 17:54:55,45.95,26.03,71.01,64,16,2.06
118,Klaksvik,FO,2020-08-01 17:54:56,62.23,-6.59,51.8,93,8,10.29
119,Henties Bay,NA,2020-08-01 17:54:56,-22.12,14.28,82.0,23,0,13.2
120,Bergerac,FR,2020-08-01 17:54:56,44.83,0.5,80.01,61,90,6.93
121,Sao Miguel Do Araguaia,BR,2020-08-01 17:54:56,-13.28,-50.16,90.25,24,0,8.03
122,Bluff,NZ,2020-08-01 17:54:56,-46.6,168.33,52.3,78,98,14.61
123,Floro,NO,2020-08-01 17:54:57,61.6,5.03,64.4,72,100,2.24
124,Payson,US,2020-08-01 17:54:57,40.04,-111.73,96.01,21,20,8.05
125,Cochrane,CA,2020-08-01 17:54:57,51.18,-114.47,70.0,73,1,10.29
126,Lovozero,RU,2020-08-01 17:54:57,68.0,35.01,50.32,88,95,8.37
127,Bumbuna,SL,2020-08-01 17:54:57,9.05,-11.73,75.34,92,99,5.08
128,Longyearbyen,SJ,2020-08-01 17:54:57,78.22,15.64,55.4,66,1,3.36
129,Broome,US,2020-08-01 17:52:04,42.25,-75.83,86.0,49,99,1.34
130,Novoagansk,RU,2020-08-01 17:54:58,61.94,76.66,63.14,79,82,12.06
131,Singtam,IN,2020-08-01 17:54:58,27.23,88.5,77.41,79,61,1.25
132,Lata,PT,2020-08-01 17:54:58,40.16,-8.33,75.0,58,0,8.01
133,Tiksi,RU,2020-08-01 17:54:58,71.69,128.87,40.08,89,2,3.13
134,San Cristobal,VE,2020-08-01 17:52:38,7.77,-72.22,93.2,41,20,19.46
135,San Andres,CO,2020-08-01 17:54:59,12.58,-81.7,89.6,66,40,5.82
136,Sao Joao Da Barra,BR,2020-08-01 17:54:59,-21.64,-41.05,75.2,53,75,11.41
137,Krasnoselkup,RU,2020-08-01 17:54:59,65.7,82.47,58.93,70,93,12.33
138,Cassilandia,BR,2020-08-01 17:55:00,-19.11,-51.73,86.58,27,16,9.22
139,Punta Arenas,CL,2020-08-01 17:55:00,-53.15,-70.92,39.2,86,75,9.17
140,Asfi,MA,2020-08-01 17:55:00,32.3,-9.24,77.58,62,68,20.51
141,Subate,LV,2020-08-01 17:55:00,56.01,25.91,58.03,76,34,4.12
142,Qaanaaq,GL,2020-08-01 17:55:01,77.48,-69.36,40.35,67,18,5.84
143,Ribeira Grande,PT,2020-08-01 17:50:13,38.52,-28.7,75.2,60,40,6.93
144,Morris,US,2020-08-01 17:55:01,40.83,-74.53,91.99,46,40,1.03
145,Alaca,TR,2020-08-01 17:55:01,40.17,34.84,68.56,62,6,7.76
146,Araguaina,BR,2020-08-01 17:55:01,-7.19,-48.21,94.24,25,0,7.74
147,Carnarvon,AU,2020-08-01 17:55:02,-24.87,113.63,62.6,82,52,12.75
148,Bilibino,RU,2020-08-01 17:55:02,68.05,166.44,46.69,83,100,2.37
149,Itarema,BR,2020-08-01 17:50:42,-2.92,-39.92,85.08,58,88,17.67
150,Camana,PE,2020-08-01 17:55:02,-16.62,-72.71,64.58,64,81,7.16
151,Olafsvik,IS,2020-08-01 17:55:02,64.89,-23.71,52.39,84,73,9.04
152,Naryan-Mar,RU,2020-08-01 17:55:02,67.67,53.09,53.44,90,98,16.37
153,Bambanglipuro,ID,2020-08-01 17:55:03,-7.95,110.28,74.61,82,48,7.99
154,Port Alfred,ZA,2020-08-01 17:55:03,-33.59,26.89,59.22,74,0,4.56
155,Batagay-Alyta,RU,2020-08-01 17:55:03,67.8,130.41,47.16,79,0,4.18
156,Saskylakh,RU,2020-08-01 17:55:03,71.92,114.08,59.18,54,43,5.99
157,Marshalltown,US,2020-08-01 17:55:03,42.05,-92.91,78.8,54,20,4.7
158,Mwingi,KE,2020-08-01 17:55:04,-0.93,38.06,68.74,67,6,14.23
159,Pinawa,CA,2020-08-01 17:55:04,50.15,-95.88,74.79,43,8,10.85
160,Vetlanda,SE,2020-08-01 17:55:04,57.43,15.08,73.99,60,40,9.17
161,Kurtamysh,RU,2020-08-01 17:55:04,54.91,64.43,68.11,74,89,2.77
162,Mahajanga,MG,2020-08-01 17:55:04,-15.72,46.32,77.81,54,14,13.87
163,Pouebo,NC,2020-08-01 17:55:05,-20.4,164.57,60.93,77,0,5.75
164,Sayyan,YE,2020-08-01 17:55:05,15.17,44.32,66.02,66,53,1.81
165,Bontang,ID,2020-08-01 17:55:05,0.13,117.5,75.45,85,77,7.07
166,Puri,IN,2020-08-01 17:55:05,19.8,85.85,84.2,94,40,3.36
167,San Juan,AR,2020-08-01 17:52:28,-31.54,-68.54,78.19,15,0,12.44
168,Mogadishu,SO,2020-08-01 17:55:06,2.04,45.34,77.25,80,40,22.17
169,Abancay,PE,2020-08-01 17:55:06,-13.63,-72.88,72.25,27,11,7.38
170,Nemuro,JP,2020-08-01 17:55:06,43.32,145.57,62.33,93,11,10.74
171,Champerico,GT,2020-08-01 17:55:06,14.3,-91.92,87.8,70,75,6.93
172,Emborion,GR,2020-08-01 17:55:06,40.48,21.55,73.4,73,58,1.12
173,Innisfail,AU,2020-08-01 17:55:07,-17.53,146.03,65.84,89,62,8.77
174,Salina Cruz,MX,2020-08-01 17:52:37,16.17,-95.2,93.54,51,0,13.38
175,Amahai,ID,2020-08-01 17:55:07,-3.33,128.92,76.64,87,91,9.93
176,Lethem,GY,2020-08-01 17:55:07,3.38,-59.8,85.73,62,76,3.44
177,Iralaya,HN,2020-08-01 17:55:07,15.0,-83.23,86.0,79,40,6.93
178,Kalmar,SE,2020-08-01 17:55:08,56.66,16.36,68.0,60,16,8.05
179,Faanui,PF,2020-08-01 17:55:08,-16.48,-151.75,77.4,82,22,11.88
180,Flinders,AU,2020-08-01 17:55:08,-34.58,150.86,48.0,85,5,1.01
181,Pevek,RU,2020-08-01 17:55:08,69.7,170.31,36.3,96,100,1.86
182,Lazaro Cardenas,MX,2020-08-01 17:50:54,17.96,-102.2,89.96,54,1,4.79
183,Aklavik,CA,2020-08-01 17:55:11,68.22,-135.01,59.0,87,75,11.41
184,Los Llanos De Aridane,ES,2020-08-01 17:54:00,28.66,-17.92,75.2,78,75,12.75
185,Yatou,CN,2020-08-01 17:55:12,37.15,122.38,74.25,96,40,5.14
186,La Ronge,CA,2020-08-01 17:53:38,55.1,-105.28,71.6,60,20,6.93
187,El Alto,PE,2020-08-01 17:55:12,-4.27,-81.21,73.4,64,0,19.46
188,Atar,MR,2020-08-01 17:55:12,20.52,-13.05,106.86,18,1,13.33
189,Scarborough,GB,2020-08-01 17:55:12,54.28,-0.4,66.99,80,59,6.22
190,Carutapera,BR,2020-08-01 17:55:12,-1.2,-46.02,85.12,65,88,8.95
191,Stroud,GB,2020-08-01 17:55:13,51.75,-2.2,68.0,64,75,8.05
192,Tura,IN,2020-08-01 17:55:13,25.52,90.22,77.7,85,66,2.26
193,Saint-Augustin,CA,2020-08-01 17:55:13,51.23,-58.65,60.33,80,98,6.82
194,Vila Velha,BR,2020-08-01 17:55:13,-20.33,-40.29,75.2,69,75,9.17
195,Haines Junction,CA,2020-08-01 17:55:13,60.75,-137.51,56.48,84,99,5.59
196,Mbaiki,CF,2020-08-01 17:55:14,3.87,17.99,75.83,83,97,2.71
197,Bethel,US,2020-08-01 17:55:14,41.37,-73.41,90.0,45,1,6.93
198,Kavaratti,IN,2020-08-01 17:55:14,10.57,72.64,82.15,79,100,20.78
199,Vestmannaeyjar,IS,2020-08-01 17:55:14,63.44,-20.27,53.33,93,100,14.92
200,Makaha,US,2020-08-01 17:55:14,21.47,-158.22,78.01,82,75,10.47
201,Loandjili,CG,2020-08-01 17:55:15,-4.76,11.86,75.2,78,40,6.93
202,Antofagasta,CL,2020-08-01 17:55:15,-23.65,-70.4,60.8,63,20,13.87
203,Miri,MY,2020-08-01 17:55:15,4.41,114.01,77.0,100,40,3.36
204,Quelimane,MZ,2020-08-01 17:55:15,-17.88,36.89,69.8,77,20,5.21
205,Russell,US,2020-08-01 17:55:15,32.35,-85.2,89.6,55,20,10.29
206,Ankazobe,MG,2020-08-01 17:55:16,-18.32,47.12,57.2,82,75,10.29
207,Bandarbeyla,SO,2020-08-01 17:50:56,9.49,50.81,78.01,74,69,30.2
208,Kamina,CD,2020-08-01 17:55:16,-8.74,24.99,73.04,37,53,4.72
209,Arraial Do Cabo,BR,2020-08-01 17:55:16,-22.97,-42.03,75.2,56,40,19.46
210,Richards Bay,ZA,2020-08-01 17:55:16,-28.78,32.04,65.35,87,0,7.7
211,Barrow,US,2020-08-01 17:55:16,71.29,-156.79,33.8,86,90,6.93
212,Kiunga,PG,2020-08-01 17:55:17,-6.12,141.29,69.98,88,100,2.01
213,Burla,IN,2020-08-01 17:55:17,21.5,83.87,81.82,83,97,2.59
214,Sulangan,PH,2020-08-01 17:55:17,11.14,123.72,82.17,72,100,1.34
215,Chervonohryhorivka,UA,2020-08-01 17:55:17,47.62,34.54,72.0,52,55,4.47
216,Ponta Delgada,PT,2020-08-01 17:55:14,37.73,-25.67,73.4,64,75,5.82
217,Kodinsk,RU,2020-08-01 17:55:17,58.69,99.18,60.4,80,100,3.49
218,Victoria,HK,2020-08-01 17:53:33,22.29,114.16,81.0,88,100,11.01
219,Barentu,ER,2020-08-01 17:55:18,15.11,37.59,72.45,83,70,5.7
220,Lahaina,US,2020-08-01 17:54:04,20.88,-156.68,77.0,65,20,6.93
221,Mount Gambier,AU,2020-08-01 17:55:18,-37.83,140.77,48.2,93,75,3.36
222,Saint-Joseph,RE,2020-08-01 17:55:19,-21.37,55.62,69.8,77,75,17.22
223,Cooma,AU,2020-08-01 17:55:19,-36.23,149.13,26.6,92,21,3.36
224,Nanortalik,GL,2020-08-01 17:50:51,60.14,-45.24,46.78,86,78,14.18
225,Lavrentiya,RU,2020-08-01 17:51:24,65.58,-171.0,42.87,75,1,8.63
226,Naze,JP,2020-08-01 17:50:34,28.37,129.48,78.8,94,17,2.24
227,Raton,US,2020-08-01 17:55:19,36.9,-104.44,84.0,27,1,5.82
228,Svetlogorsk,BY,2020-08-01 17:55:20,52.63,29.73,56.16,89,23,5.3
229,Huarmey,PE,2020-08-01 17:55:20,-10.07,-78.15,67.08,67,56,10.25
230,La Palma,US,2020-08-01 17:53:27,33.85,-118.05,80.6,44,1,6.93
231,Mahebourg,MU,2020-08-01 17:50:31,-20.41,57.7,71.6,83,75,11.41
232,Cabo San Lucas,MX,2020-08-01 17:55:03,22.89,-109.91,90.0,58,5,8.05
233,Hami,CN,2020-08-01 17:55:21,42.8,93.45,80.22,15,6,8.25
234,Riyadh,SA,2020-08-01 17:53:44,24.69,46.72,109.4,11,99,8.05
235,Buala,SB,2020-08-01 17:55:21,-8.14,159.59,79.34,78,100,2.37
236,Palmer,US,2020-08-01 17:52:39,42.16,-72.33,89.01,37,20,5.82
237,Bocana De Paiwas,NI,2020-08-01 17:55:21,12.79,-85.12,85.3,76,48,6.44
238,Lorengau,PG,2020-08-01 17:51:04,-2.02,147.27,80.06,84,99,10.36
239,Pedra Branca,BR,2020-08-01 17:55:22,-5.45,-39.72,87.51,37,35,8.39
240,Steinheim,DE,2020-08-01 17:55:22,51.87,9.09,75.99,78,89,0.92
241,Taoudenni,ML,2020-08-01 17:55:22,22.68,-3.98,113.99,7,0,7.99
242,Manggar,ID,2020-08-01 17:55:22,-2.88,108.27,79.12,83,18,10.29
243,Kupang,ID,2020-08-01 17:55:22,-10.17,123.58,72.55,84,6,8.79
244,Prince Rupert,CA,2020-08-01 17:51:00,54.32,-130.32,66.2,68,40,12.75
245,Labytnangi,RU,2020-08-01 17:55:23,66.66,66.42,55.99,95,84,10.09
246,Xining,CN,2020-08-01 17:55:23,36.62,101.77,58.6,62,6,2.48
247,Mobai,SL,2020-08-01 17:55:23,7.99,-10.75,72.81,97,84,3.42
248,Lima,PE,2020-08-01 17:50:24,-12.04,-77.03,64.4,68,20,9.17
249,Nizwa,OM,2020-08-01 17:53:32,22.93,57.53,93.33,41,10,12.48
250,Iwaki,JP,2020-08-01 17:55:24,37.05,140.88,68.0,96,27,1.01
251,Baghdad,IQ,2020-08-01 17:53:01,33.34,44.4,100.4,21,0,6.93
252,Kudat,MY,2020-08-01 17:55:24,6.88,116.85,77.0,94,20,1.12
253,Rawson,AR,2020-08-01 17:55:27,-43.3,-65.1,53.6,50,100,28.86
254,Ayan,RU,2020-08-01 17:55:27,56.45,138.17,52.32,82,100,11.39
255,Mar Del Plata,AR,2020-08-01 17:54:14,-38.0,-57.56,53.6,71,83,11.41
256,Tshikapa,CD,2020-08-01 17:55:28,-6.42,20.8,83.71,32,41,2.48
257,Suoyarvi,RU,2020-08-01 17:55:28,62.08,32.35,54.28,81,88,4.36
258,Hovd,MN,2020-08-01 17:54:57,48.01,91.64,57.76,45,0,1.88
259,Shangrao,CN,2020-08-01 17:55:28,28.45,117.97,78.96,82,0,2.42
260,Gondar,ET,2020-08-01 17:55:29,12.6,37.47,55.85,96,86,0.2
261,Presidencia Roque Saenz Pena,AR,2020-08-01 17:55:29,-26.79,-60.44,89.1,30,0,12.41
262,Semenivka,UA,2020-08-01 17:55:29,52.18,32.58,55.38,90,47,7.67
263,Amot,NO,2020-08-01 17:55:29,59.57,7.99,68.0,64,92,3.0
264,Ammapettai,IN,2020-08-01 17:55:29,10.8,79.33,82.4,83,75,4.7
265,Marawi,PH,2020-08-01 17:55:29,8.0,124.29,75.99,91,100,4.0
266,Omsukchan,RU,2020-08-01 17:55:30,62.53,155.8,42.93,81,1,3.04
267,Sambava,MG,2020-08-01 17:55:30,-14.27,50.17,73.11,78,39,18.86
268,Coralville,US,2020-08-01 17:55:30,41.68,-91.58,78.8,54,20,9.17
269,Bhainsa,IN,2020-08-01 17:55:30,26.95,76.9,91.22,53,66,6.76
270,Sawakin,SD,2020-08-01 17:55:30,19.11,37.33,91.8,51,94,15.19
271,Lac Du Bonnet,CA,2020-08-01 17:55:31,50.25,-96.06,73.0,99,5,1.99
272,Maridi,SS,2020-08-01 17:55:31,4.92,29.47,70.03,91,100,1.92
273,Rocha,UY,2020-08-01 17:55:31,-34.48,-54.33,63.05,68,3,9.06
274,Miraflores,MX,2020-08-01 17:55:31,19.22,-98.81,69.8,60,75,6.93
275,Monrovia,LR,2020-08-01 17:53:33,6.3,-10.8,77.0,94,75,10.29
276,Paamiut,GL,2020-08-01 17:55:31,61.99,-49.67,45.41,96,100,11.7
277,Shanhetun,CN,2020-08-01 17:55:32,44.7,127.2,70.2,84,0,5.48
278,Dudinka,RU,2020-08-01 17:55:32,69.41,86.18,59.0,77,61,8.95
279,Luganville,VU,2020-08-01 17:55:32,-15.53,167.17,75.06,87,41,4.7
280,Eisenberg,DE,2020-08-01 17:55:32,50.97,11.9,86.0,20,87,3.33
281,Ambilobe,MG,2020-08-01 17:55:33,-13.2,49.05,71.08,84,12,2.64
282,Nago,JP,2020-08-01 17:55:33,26.59,127.98,82.4,83,20,8.05
283,Batemans Bay,AU,2020-08-01 17:55:33,-35.72,150.18,42.01,95,1,1.99
284,Kilindoni,TZ,2020-08-01 17:55:33,-7.91,39.67,76.19,78,0,18.77
285,Kaitangata,NZ,2020-08-01 17:55:33,-46.28,169.85,48.99,72,77,4.0
286,Ponta Do Sol,PT,2020-08-01 17:55:33,32.67,-17.1,77.0,65,20,21.92
287,Norman Wells,CA,2020-08-01 17:50:38,65.28,-126.83,73.4,60,5,10.29
288,Gao,ML,2020-08-01 17:55:34,16.64,1.64,95.83,30,49,12.86
289,Abu Dhabi,AE,2020-08-01 17:53:43,24.47,54.37,100.4,67,23,6.93
290,Uzhur,RU,2020-08-01 17:55:34,55.3,89.83,50.02,89,99,2.46
291,Nouadhibou,MR,2020-08-01 17:55:34,20.93,-17.03,80.6,69,27,16.11
292,Gobabis,NA,2020-08-01 17:51:21,-22.45,18.97,66.2,17,0,2.24
293,Makokou,GA,2020-08-01 17:55:35,0.57,12.86,75.69,71,30,1.21
294,Faya,SA,2020-08-01 17:55:35,18.39,42.45,69.8,77,40,6.55
295,Viedma,AR,2020-08-01 17:55:35,-40.81,-63.0,60.01,55,100,5.99
296,Hattiesburg,US,2020-08-01 17:55:35,31.33,-89.29,87.8,58,1,8.05
297,Sangar,RU,2020-08-01 17:55:36,63.92,127.47,55.67,53,0,2.8
298,Pangnirtung,CA,2020-08-01 17:55:36,66.15,-65.71,46.4,100,90,14.99
299,Marienburg,PL,2020-08-01 17:55:36,54.04,19.03,69.01,90,0,5.59
300,Vila Franca Do Campo,PT,2020-08-01 17:55:36,37.72,-25.43,73.4,64,75,5.82
301,Chicama,PE,2020-08-01 17:55:37,-7.84,-79.15,73.45,54,38,10.58
302,Bathsheba,BB,2020-08-01 17:55:37,13.22,-59.52,87.8,66,40,11.41
303,Bilma,NE,2020-08-01 17:51:12,18.69,12.92,97.25,32,85,6.33
304,Makushino,RU,2020-08-01 17:55:37,55.21,67.24,69.6,66,41,6.71
305,Nyaunglebin,MM,2020-08-01 17:55:37,17.95,96.73,78.96,93,100,3.36
306,Salekhard,RU,2020-08-01 17:55:37,66.53,66.6,55.76,96,86,10.22
307,Solnechnyy,RU,2020-08-01 17:55:38,50.72,136.63,56.97,94,89,5.35
308,Ahipara,NZ,2020-08-01 17:55:38,-35.17,173.17,55.83,89,100,12.28
309,Westport,US,2020-08-01 17:55:38,41.14,-73.36,93.99,58,1,8.05
310,Port Augusta,AU,2020-08-01 17:55:38,-32.5,137.77,46.4,46,100,6.93
311,Bhachau,IN,2020-08-01 17:55:38,23.28,70.35,90.16,62,84,10.85
312,Manono,CD,2020-08-01 17:55:39,-7.3,27.42,82.17,29,81,8.03
313,Ahuimanu,US,2020-08-01 17:55:39,21.44,-157.84,80.01,61,20,5.82
314,Ust-Nera,RU,2020-08-01 17:53:13,64.57,143.2,49.03,61,1,1.68
315,Ceyhan,TR,2020-08-01 17:55:39,37.02,35.82,84.2,83,2,10.29
316,Norfolk,US,2020-08-01 17:53:26,42.17,-71.25,90.0,43,20,6.93
317,Prabumulih,ID,2020-08-01 17:55:39,-3.45,104.25,71.13,88,63,3.18
318,Tiarei,PF,2020-08-01 17:55:40,-17.53,-149.33,75.2,73,20,3.36
319,Meulaboh,ID,2020-08-01 17:55:40,4.14,96.13,76.05,88,100,4.54
320,Jalu,LY,2020-08-01 17:55:40,29.03,21.55,90.59,31,0,21.25
321,Isangel,VU,2020-08-01 17:55:40,-19.55,169.27,69.91,83,97,18.28
322,Beringovskiy,RU,2020-08-01 17:55:41,63.05,179.32,50.47,81,100,9.8
323,Fare,PF,2020-08-01 17:55:41,-16.7,-151.02,78.49,82,5,13.58
324,Poshekhonye,RU,2020-08-01 17:55:41,58.5,39.14,55.51,87,27,7.49
325,Le Port,RE,2020-08-01 17:55:41,-20.94,55.29,69.8,73,40,19.46
326,Rabo De Peixe,PT,2020-08-01 17:53:36,37.8,-25.58,73.4,64,75,5.82
327,Araouane,ML,2020-08-01 17:55:41,18.9,-3.53,109.02,7,0,5.28
328,Kahului,US,2020-08-01 17:55:42,20.89,-156.47,77.0,65,20,6.93
329,Pihani,IN,2020-08-01 17:55:42,27.63,80.2,85.35,73,22,5.88
330,Gorontalo,ID,2020-08-01 17:55:42,0.54,123.06,74.21,89,94,2.39
331,Port Hardy,CA,2020-08-01 17:55:42,50.7,-127.42,62.6,77,40,4.7
332,Sabang,ID,2020-08-01 17:53:24,5.89,95.32,83.37,73,100,18.81
333,Ekhabi,RU,2020-08-01 17:55:43,53.51,142.97,51.55,95,100,23.58
334,Sisimiut,GL,2020-08-01 17:53:03,66.94,-53.67,45.5,93,100,6.67
335,Kavieng,PG,2020-08-01 17:55:43,-2.57,150.8,80.02,82,100,7.52
336,Berbera,SO,2020-08-01 17:55:43,10.44,45.01,91.4,43,51,19.13
337,Fortuna,US,2020-08-01 17:55:44,40.6,-124.16,64.99,83,16,1.01
338,Syracuse,IT,2020-08-01 17:55:44,37.09,15.28,91.4,40,1,4.7
339,Diffa,NE,2020-08-01 17:55:44,13.32,12.61,92.64,37,84,5.79
340,Nieuw Nickerie,SR,2020-08-01 17:55:44,5.95,-56.98,84.52,68,50,3.2
341,Curup,ID,2020-08-01 17:55:47,-3.47,102.53,66.85,81,80,1.99
342,Valparaiso,CL,2020-08-01 17:55:47,-33.04,-71.63,60.8,67,90,4.7
343,Port Hedland,AU,2020-08-01 17:51:14,-20.32,118.57,59.0,42,0,6.93
344,Kerrobert,CA,2020-08-01 17:55:48,51.92,-109.13,75.2,36,20,18.34
345,Byron Bay,AU,2020-08-01 17:53:31,-28.65,153.62,48.99,100,13,7.49
346,Port Blair,IN,2020-08-01 17:52:10,11.67,92.75,81.27,82,100,22.48
347,Sarangani,PH,2020-08-01 17:55:48,5.4,125.46,81.1,82,100,13.4
348,Trencin,SK,2020-08-01 17:55:48,48.83,18.25,75.0,58,29,3.0
349,Denpasar,ID,2020-08-01 17:55:49,-8.65,115.22,77.0,83,20,6.93
350,Monywa,MM,2020-08-01 17:55:49,22.12,95.13,88.27,68,100,5.12
351,Luang Prabang,LA,2020-08-01 17:55:49,19.89,102.13,76.64,89,100,0.85
352,Horsham,GB,2020-08-01 17:55:49,51.06,-0.33,73.4,56,40,10.29
353,Benguela,AO,2020-08-01 17:55:49,-12.58,13.41,69.37,86,12,5.37
354,Puro,PH,2020-08-01 17:55:50,12.48,123.38,79.12,80,100,1.14
355,Xuddur,SO,2020-08-01 17:55:50,4.12,43.89,76.89,62,44,20.2
356,Nioro,GM,2020-08-01 17:55:50,13.35,-15.75,85.68,72,66,8.34
357,Moron,AR,2020-08-01 17:50:51,-34.65,-58.62,68.0,63,75,12.75
358,Egvekinot,RU,2020-08-01 17:55:50,66.32,-179.17,45.88,79,83,2.44
359,Yarkovo,RU,2020-08-01 17:55:50,57.4,67.08,64.15,91,98,4.16
360,Sunbury,AU,2020-08-01 17:54:52,-37.58,144.73,48.2,76,0,24.16
361,Agadez,NE,2020-08-01 17:55:51,19.75,10.25,95.65,28,32,10.07
362,Canon City,US,2020-08-01 17:51:21,38.44,-105.24,82.4,30,1,4.7
363,Baoying,CN,2020-08-01 17:55:51,33.23,119.31,80.13,91,100,6.29
364,Kendari,ID,2020-08-01 17:55:51,-3.94,122.5,71.44,89,79,3.44
365,Horta,PT,2020-08-01 17:55:52,38.53,-28.63,75.2,60,40,6.93
366,Kalga,RU,2020-08-01 17:55:52,50.93,118.9,60.62,92,55,2.84
367,Olga,RU,2020-08-01 17:55:52,43.74,135.29,66.42,95,100,3.2
368,Waipawa,NZ,2020-08-01 17:55:52,-41.41,175.52,46.99,87,99,9.17
369,Nhulunbuy,AU,2020-08-01 17:55:16,-12.23,136.77,69.8,77,75,6.93
370,Turukhansk,RU,2020-08-01 17:55:53,65.82,87.98,54.57,68,12,7.54
371,Wellington,NZ,2020-08-01 17:53:12,-41.29,174.78,46.99,87,96,9.17
372,Guilin,CN,2020-08-01 17:55:53,25.28,110.29,80.6,88,40,4.47
373,Kenora,CA,2020-08-01 17:55:53,49.82,-94.43,69.8,60,75,13.87
374,Yeppoon,AU,2020-08-01 17:55:53,-23.13,150.73,59.0,82,90,3.36
375,Vanimo,PG,2020-08-01 17:55:54,-2.67,141.3,76.1,92,100,2.75
376,Touros,BR,2020-08-01 17:55:54,-5.2,-35.46,82.4,69,40,13.87
377,Santa Maria,BR,2020-08-01 17:51:57,-29.68,-53.81,73.83,67,11,5.44
378,Waspan,NI,2020-08-01 17:55:54,14.74,-83.97,86.0,79,40,6.93
379,Leningradskiy,RU,2020-08-01 17:55:55,69.38,178.42,40.32,72,100,2.82
380,Hue,VN,2020-08-01 17:55:55,16.47,107.6,80.6,88,75,5.82
381,Forio,IT,2020-08-01 17:55:55,40.73,13.86,84.99,88,41,8.01
382,Shitkino,RU,2020-08-01 17:55:55,56.37,98.35,61.16,94,93,3.06
383,Nargana,PA,2020-08-01 17:55:56,9.44,-78.59,83.1,75,86,5.37
384,Ancud,CL,2020-08-01 17:55:56,-41.87,-73.82,53.6,76,75,16.11
385,Katsuura,JP,2020-08-01 17:55:56,35.13,140.3,75.0,86,28,12.37
386,Kargasok,RU,2020-08-01 17:55:56,59.06,80.86,58.77,84,35,8.16
387,San Felipe,VE,2020-08-01 17:55:56,10.34,-68.74,88.52,51,14,10.31
388,Iskateley,RU,2020-08-01 17:55:57,67.68,53.15,53.38,90,98,16.15
389,Natal,BR,2020-08-01 17:55:57,-5.79,-35.21,84.2,62,40,21.92
390,Itoman,JP,2020-08-01 17:55:57,26.12,127.67,84.2,83,40,6.93
391,Kohtla-Jarve,EE,2020-08-01 17:54:04,59.4,27.27,59.04,77,15,10.02
392,Nanakuli,US,2020-08-01 17:55:57,21.39,-158.15,78.01,73,1,3.36
393,Kirchhundem,DE,2020-08-01 17:55:58,51.1,8.1,81.0,75,69,1.01
394,Turayf,SA,2020-08-01 17:55:58,31.67,38.66,95.0,17,0,13.87
395,Tilichiki,RU,2020-08-01 17:55:58,60.47,166.1,48.34,95,34,2.33
396,Oktyabrskoye,RU,2020-08-01 17:55:58,43.06,44.74,68.0,100,75,4.47
397,Sitka,US,2020-08-01 17:51:04,57.05,-135.33,60.8,87,75,3.36
398,Maniitsoq,GL,2020-08-01 17:55:59,65.42,-52.9,45.25,96,100,14.09
399,Beira,MZ,2020-08-01 17:55:59,-19.84,34.84,69.8,77,20,9.17
400,Alta Floresta,BR,2020-08-01 17:51:45,-9.88,-56.09,95.0,19,0,9.17
401,Iracoubo,GF,2020-08-01 17:55:59,5.48,-53.2,82.53,79,24,7.34
402,Khash,IR,2020-08-01 17:56:00,28.22,61.22,79.0,25,27,5.91
403,Anchorage,US,2020-08-01 17:53:17,61.22,-149.9,57.99,87,75,4.7
404,Sokoto,NG,2020-08-01 17:56:00,13.06,5.24,86.45,55,3,7.94
405,Aguimes,ES,2020-08-01 17:56:00,27.91,-15.45,80.01,65,20,25.28
406,Storforshei,NO,2020-08-01 17:52:47,66.4,14.52,73.4,49,64,5.82
407,Kalawit,PH,2020-08-01 17:56:01,8.07,122.52,76.73,87,100,5.68
408,Pimenta Bueno,BR,2020-08-01 17:56:01,-11.67,-61.19,98.56,17,0,4.74
409,Ellenabad,IN,2020-08-01 17:56:01,29.45,74.65,99.23,35,37,6.85
410,Hofn,IS,2020-08-01 17:53:03,64.25,-15.21,51.66,94,100,22.12
411,Puerto Quijarro,BO,2020-08-01 17:56:01,-17.78,-57.77,97.43,17,0,6.26
412,Arrecife,ES,2020-08-01 17:56:01,28.96,-13.55,84.2,58,67,16.11
413,Berlevag,NO,2020-08-01 17:53:22,70.86,29.09,48.33,87,99,8.57
414,Namatanai,PG,2020-08-01 17:56:02,-3.67,152.43,78.82,84,100,11.16
415,Catanzaro,IT,2020-08-01 17:56:02,38.89,16.6,86.0,74,19,12.75
416,Dondo,MZ,2020-08-01 17:56:02,-19.61,34.74,69.8,77,20,9.17
417,Havre,FR,2020-08-01 17:56:03,49.58,0.33,70.0,77,40,8.05
418,Gonbad-E Qabus,IR,2020-08-01 17:56:03,37.25,55.17,80.6,54,0,4.7
419,Kristiansand,NO,2020-08-01 17:56:03,58.15,8.0,66.99,72,99,10.29
420,Sumkino,RU,2020-08-01 17:56:03,58.11,68.32,63.1,94,90,3.69
421,Balikpapan,ID,2020-08-01 17:56:03,-1.27,116.83,75.06,93,35,5.28
422,Sioux Lookout,CA,2020-08-01 17:56:04,50.1,-91.92,66.2,72,75,10.29
423,Ixtapa,MX,2020-08-01 17:56:05,20.7,-105.2,87.8,66,75,1.9
424,Murray Bridge,AU,2020-08-01 17:56:05,-35.12,139.27,48.0,81,12,2.71
425,Thinadhoo,MV,2020-08-01 17:56:07,0.53,72.93,83.73,73,29,10.63
426,Ruteng,ID,2020-08-01 17:56:08,-8.61,120.47,57.29,100,32,0.92
427,Santa Vitoria Do Palmar,BR,2020-08-01 17:56:08,-33.52,-53.37,59.97,70,11,6.96
428,Belyy Yar,RU,2020-08-01 17:51:19,53.6,91.39,55.4,87,99,2.24
429,Tselinnoye,RU,2020-08-01 17:56:09,53.08,85.67,58.53,80,7,5.06
430,Virginia Beach,US,2020-08-01 17:52:47,36.85,-75.98,84.99,74,75,8.05
431,Comodoro Rivadavia,AR,2020-08-01 17:53:12,-45.87,-67.5,59.0,41,97,18.34
432,Bara,NG,2020-08-01 17:56:09,10.37,10.73,78.64,81,50,10.56
433,Burnie,AU,2020-08-01 17:56:10,-41.07,145.92,46.99,87,37,3.0
434,Santa Rita Do Sapucai,BR,2020-08-01 17:56:10,-22.25,-45.7,74.03,41,6,3.22
435,Velizh,RU,2020-08-01 17:56:10,55.61,31.2,55.92,83,99,8.55
436,Kununurra,AU,2020-08-01 17:56:10,-15.77,128.73,55.4,28,8,9.48
437,Pajapan,MX,2020-08-01 17:56:10,18.25,-94.7,86.0,62,75,5.97
438,Ginir,ET,2020-08-01 17:56:11,7.13,40.7,58.75,79,49,11.95
439,Greenfield,US,2020-08-01 17:56:11,42.96,-88.01,80.01,78,75,9.17
440,Aketi,CD,2020-08-01 17:56:11,2.74,23.78,75.25,81,97,2.93
441,Santa Barbara,US,2020-08-01 17:56:11,34.42,-119.7,98.01,72,1,5.82
442,Rio Sereno,PA,2020-08-01 17:56:11,8.82,-82.87,77.0,55,87,3.0
443,Bahadurganj,IN,2020-08-01 17:56:11,26.27,87.82,84.29,79,30,3.58
444,Vaitape,PF,2020-08-01 17:56:12,-16.52,-151.75,78.24,80,21,11.74
445,Brigantine,US,2020-08-01 17:56:12,39.41,-74.36,88.0,58,1,6.93
446,Salym,RU,2020-08-01 17:56:12,60.06,71.48,61.77,93,67,6.26
447,Jega,NG,2020-08-01 17:55:48,12.22,4.38,85.21,62,3,8.14
448,Havoysund,NO,2020-08-01 17:56:13,71.0,24.66,48.2,87,52,9.17
449,Nouakchott,MR,2020-08-01 17:56:13,18.09,-15.98,89.6,62,0,20.8
450,Imeni Babushkina,RU,2020-08-01 17:56:13,59.76,43.13,53.26,83,20,4.47
451,Guerrero Negro,MX,2020-08-01 17:56:13,27.98,-114.06,87.89,43,48,1.81
452,Grand-Santi,GF,2020-08-01 17:56:14,4.25,-54.38,91.94,52,78,3.15
453,Nishihara,JP,2020-08-01 17:56:14,26.18,127.76,84.2,83,40,6.93
454,Eyl,SO,2020-08-01 17:56:14,7.98,49.82,79.03,71,66,28.77
455,Codrington,AU,2020-08-01 17:56:14,-38.27,141.97,50.13,90,71,6.29
456,Rypefjord,NO,2020-08-01 17:56:14,70.63,23.67,48.2,87,66,9.17
457,Komsomolskiy,UZ,2020-08-01 17:56:15,40.43,71.72,78.8,36,9,4.7
458,Ketchikan,US,2020-08-01 17:56:15,55.34,-131.65,62.6,82,90,14.99
459,Veraval,IN,2020-08-01 17:56:15,20.9,70.37,85.01,81,99,5.23
460,Laguna,US,2020-08-01 17:56:16,38.42,-121.42,78.01,53,5,3.74
461,Loa Janan,ID,2020-08-01 17:56:16,-0.58,117.09,72.16,98,43,2.1
462,Hobyo,SO,2020-08-01 17:56:16,5.35,48.53,77.9,77,19,26.69
463,Yankton,US,2020-08-01 17:52:32,42.87,-97.4,75.99,78,90,11.41
464,Estelle,US,2020-08-01 17:56:16,29.85,-90.11,93.0,66,75,8.05
465,Klyuchevskiy,RU,2020-08-01 17:56:17,53.53,119.45,59.18,100,63,6.17
466,Coruripe,BR,2020-08-01 17:56:17,-10.13,-36.18,76.41,80,72,10.89
467,Areia Branca,BR,2020-08-01 17:54:48,-4.96,-37.14,83.35,65,64,15.7
468,Mopipi,BW,2020-08-01 17:56:17,-21.18,24.88,62.74,30,0,10.29
469,La Romana,DO,2020-08-01 17:52:06,18.43,-68.97,89.6,66,40,10.0
470,Bonavista,CA,2020-08-01 17:56:18,48.65,-53.11,57.99,72,85,4.0
471,Carballo,ES,2020-08-01 17:56:18,43.21,-8.69,68.0,72,75,12.75
472,Altamont,US,2020-08-01 17:56:18,42.21,-121.74,79.0,43,1,4.7
473,Bitlis,TR,2020-08-01 17:56:18,38.5,42.25,67.73,24,0,4.41
474,Husavik,IS,2020-08-01 17:56:18,66.04,-17.34,59.0,72,75,6.93
475,San Luis,AR,2020-08-01 17:56:19,-33.3,-66.34,70.02,26,71,22.21
476,Sept-Iles,CA,2020-08-01 17:56:19,50.2,-66.38,73.4,73,40,10.29
477,Carora,VE,2020-08-01 17:56:19,10.18,-70.08,95.81,32,0,2.55
478,Aanekoski,FI,2020-08-01 17:56:19,62.69,25.82,64.0,67,99,4.7
479,Cazones,MX,2020-08-01 17:56:20,20.72,-97.32,87.8,66,75,6.93
480,Umba,RU,2020-08-01 17:56:20,66.69,34.34,54.37,82,87,8.37
481,Yining,CN,2020-08-01 17:56:20,29.04,114.56,78.73,84,2,2.3
482,Holme,DK,2020-08-01 17:56:20,56.11,10.17,73.4,56,83,8.05
483,Half Moon Bay,US,2020-08-01 17:55:14,37.46,-122.43,72.0,77,40,6.93
484,Kushalgarh,IN,2020-08-01 17:56:21,23.2,74.45,83.66,78,58,7.29
485,Shimanovsk,RU,2020-08-01 17:56:21,52.0,127.7,60.49,96,96,7.7
486,Saryozek,KZ,2020-08-01 17:56:21,44.36,77.98,70.81,33,59,2.51
487,Gohpur,IN,2020-08-01 17:56:21,26.88,93.63,80.33,84,66,2.95
488,Plymouth,US,2020-08-01 17:56:21,41.83,-70.83,89.6,54,1,9.17
489,Maubin,MM,2020-08-01 17:56:22,16.73,95.65,80.6,94,75,4.7
490,Waddan,LY,2020-08-01 17:56:22,29.16,16.14,91.02,15,0,11.32
491,Magadan,RU,2020-08-01 17:56:22,59.57,150.8,52.18,69,78,3.58
492,Awbari,LY,2020-08-01 17:51:24,26.59,12.78,96.71,15,0,14.79
493,Shiojiri,JP,2020-08-01 17:56:22,36.1,137.97,66.0,94,17,1.77
494,Constitucion,CL,2020-08-01 17:56:23,-35.33,-72.42,54.86,88,100,19.08
495,Maine-Soroa,NE,2020-08-01 17:56:23,13.21,12.02,92.71,37,72,7.36
496,Whitehorse,CA,2020-08-01 17:56:23,60.72,-135.05,62.01,87,75,17.22
497,Avera,US,2020-08-01 17:53:46,33.19,-82.53,95.0,41,40,10.54
498,Coahuayana,MX,2020-08-01 17:56:23,18.73,-103.68,80.6,78,5,4.38
499,Sechura,PE,2020-08-01 17:56:23,-5.56,-80.82,75.18,53,15,11.61
500,Zlocieniec,PL,2020-08-01 17:56:24,53.53,16.01,72.0,52,2,4.9
501,Mwinilunga,ZM,2020-08-01 17:56:24,-11.74,24.43,64.65,38,0,6.49
502,Tumwater,US,2020-08-01 17:54:08,47.01,-122.91,64.99,77,90,4.7
503,Jinchang,CN,2020-08-01 17:56:24,38.5,102.17,73.47,23,24,1.14
504,Santa Cruz,BO,2020-08-01 17:52:11,-17.8,-63.17,86.0,48,20,6.93
505,Maarianhamina,AX,2020-08-01 17:55:06,60.1,19.93,62.6,88,63,8.05
506,Slavsk,RU,2020-08-01 17:56:27,55.04,21.68,61.23,86,3,6.89
507,Roanoke Rapids,US,2020-08-01 17:56:28,36.46,-77.65,90.0,66,75,3.38
508,Gizo,SB,2020-08-01 17:56:28,-8.1,156.84,79.59,81,100,6.64
509,Alice Springs,AU,2020-08-01 17:53:27,-23.7,133.88,37.4,34,0,2.24
510,Cumbitara,CO,2020-08-01 17:56:28,1.65,-77.58,75.2,44,40,4.7
511,Suez,EG,2020-08-01 17:56:28,29.97,32.53,83.57,49,0,14.9
512,Gornopravdinsk,RU,2020-08-01 17:56:28,60.05,69.9,60.76,92,75,5.23
513,Den Helder,NL,2020-08-01 17:52:51,52.96,4.76,69.01,72,21,9.17
514,Pathein,MM,2020-08-01 17:56:29,16.78,94.73,80.8,85,99,7.96
515,Zaterechnyy,RU,2020-08-01 17:56:29,44.79,45.21,72.79,67,55,15.57
516,Guamuchil,MX,2020-08-01 17:56:29,25.47,-108.1,91.0,65,15,4.0
517,Sao Filipe,CV,2020-08-01 17:56:29,14.9,-24.5,77.34,80,62,7.27
518,Fernandopolis,BR,2020-08-01 17:56:30,-20.28,-50.25,84.04,28,28,4.92
519,Lopukhiv,UA,2020-08-01 17:56:30,48.37,23.96,55.71,82,41,4.68
520,Tadine,NC,2020-08-01 17:56:30,-21.55,167.88,65.52,74,10,17.16
521,Churapcha,RU,2020-08-01 17:56:30,62.0,132.43,53.74,70,12,2.15
522,Mount Isa,AU,2020-08-01 17:56:30,-20.73,139.5,46.4,49,0,13.65
523,Grand Gaube,MU,2020-08-01 17:56:30,-20.01,57.66,70.0,81,13,5.01
524,Chapais,CA,2020-08-01 17:56:31,49.78,-74.85,78.8,47,90,6.93
525,Kijang,KR,2020-08-01 17:56:31,35.24,129.21,78.8,83,75,3.36
526,Klyuchi,RU,2020-08-01 17:56:31,52.27,79.17,65.62,72,0,6.73
527,Linjiang,CN,2020-08-01 17:56:31,41.81,126.91,66.67,88,57,0.85
528,Talakan,RU,2020-08-01 17:56:32,50.32,130.37,65.86,95,79,4.18
529,Zhigansk,RU,2020-08-01 17:56:32,66.77,123.37,53.98,66,0,11.65
530,Talnakh,RU,2020-08-01 17:56:32,69.49,88.4,59.0,77,90,8.95
531,San Policarpo,PH,2020-08-01 17:54:59,12.18,125.51,77.92,87,100,4.43
532,Yulara,AU,2020-08-01 17:56:33,-25.24,130.99,46.4,24,0,6.93
533,Rock Sound,BS,2020-08-01 17:56:33,24.9,-76.2,84.02,78,98,31.05
534,Chakulia,IN,2020-08-01 17:56:33,22.48,86.72,84.27,78,26,5.26
535,Canete,CL,2020-08-01 17:56:33,-37.8,-73.4,53.55,90,99,6.98
536,Birjand,IR,2020-08-01 17:53:33,32.87,59.22,82.4,20,27,6.93
537,Hirara,JP,2020-08-01 17:56:33,24.8,125.28,84.42,79,5,24.52
538,Ukiah,US,2020-08-01 17:56:34,39.15,-123.21,81.0,41,1,5.26
539,Miandoab,IR,2020-08-01 17:56:34,36.97,46.1,82.4,24,0,4.7
540,Perez,AR,2020-08-01 17:56:34,-33.0,-60.77,77.0,57,35,18.34
541,Margate,GB,2020-08-01 17:52:37,51.38,1.39,73.99,61,58,4.0
542,Mtimbira,TZ,2020-08-01 17:56:34,-8.78,36.35,71.98,45,3,4.18
543,Mokhsogollokh,RU,2020-08-01 17:56:34,61.47,128.92,53.08,77,19,1.77
544,Calvinia,ZA,2020-08-01 17:56:35,-31.47,19.78,60.78,29,0,6.73
545,Salalah,OM,2020-08-01 17:56:35,17.02,54.09,82.4,88,75,5.82
546,Mersing,MY,2020-08-01 17:56:35,2.43,103.84,78.8,88,55,5.82
547,Linhai,CN,2020-08-01 17:56:35,28.85,121.12,81.0,94,2,2.75
548,Waslala,NI,2020-08-01 17:56:35,13.23,-85.38,80.6,57,40,6.93
549,Santa Rosa,PH,2020-08-01 17:53:09,14.31,121.11,78.01,94,100,3.33
550,Ouadda,CF,2020-08-01 17:56:36,8.08,22.4,71.28,90,100,1.77
551,Kholm,RU,2020-08-01 17:56:36,59.27,32.85,55.89,79,17,6.2
552,Jumla,NP,2020-08-01 17:56:36,29.27,82.18,64.24,71,66,0.65
553,Padang,ID,2020-08-01 17:54:32,-0.95,100.35,77.27,80,88,3.18
554,Rio Grande,BR,2020-08-01 17:53:51,-32.03,-52.1,68.0,68,32,5.82
