City_ID,City,Country,Date,Lat,Lng,Max Temp,Humidity,Cloudiness,Wind Speed
0,Saskylakh,RU,2020-08-01 16:28:24,71.92,114.08,59.32,54,15,5.91
1,Castro,BR,2020-08-01 16:28:39,-24.79,-50.01,66.34,54,37,4.07
2,Rikitea,PF,2020-08-01 16:27:57,-23.12,-134.97,73.24,81,100,5.14
3,Puerto Ayora,EC,2020-08-01 16:25:17,-0.74,-90.35,75.2,69,75,16.11
4,Mataura,NZ,2020-08-01 16:27:50,-46.19,168.86,47.68,86,73,4.59
5,San Cristobal,VE,2020-08-01 16:29:07,7.77,-72.22,91.4,43,20,23.04
6,Fairbanks,US,2020-08-01 16:28:37,64.84,-147.72,60.8,87,1,2.3
7,Victor Harbor,AU,2020-08-01 16:27:57,-35.57,138.62,44.01,89,0,3.15
8,Yellowknife,CA,2020-08-01 16:28:25,62.46,-114.35,70.0,72,75,11.41
9,Rawson,AR,2020-08-01 16:24:44,-43.3,-65.1,54.43,47,100,29.06
10,Cape Town,ZA,2020-08-01 16:24:31,-33.93,18.42,68.0,59,0,5.82
11,Kisesa,TZ,2020-08-01 16:31:00,-3.08,34.15,73.47,33,1,10.6
12,Mareeba,AU,2020-08-01 16:31:00,-17.0,145.43,66.2,82,75,13.87
13,Kaeo,NZ,2020-08-01 16:31:00,-35.1,173.78,59.0,3,100,5.99
14,Saint-Philippe,RE,2020-08-01 16:28:09,-21.36,55.77,68.0,88,75,9.17
15,Port Alfred,ZA,2020-08-01 16:27:55,-33.59,26.89,59.63,74,0,2.95
16,Korla,CN,2020-08-01 16:27:53,41.76,86.15,84.96,20,56,5.55
17,Vestmannaeyjar,IS,2020-08-01 16:29:52,63.44,-20.27,57.2,87,40,14.99
18,Kapaa,US,2020-08-01 16:27:51,22.08,-159.32,77.0,78,75,11.41
19,Campbell River,CA,2020-08-01 16:31:01,50.02,-125.24,66.2,68,40,4.7
20,Myingyan,MM,2020-08-01 16:31:01,21.47,95.38,87.84,68,100,11.3
21,Westport,US,2020-08-01 16:31:02,41.14,-73.36,86.0,58,1,4.7
22,Puerto Escondido,MX,2020-08-01 16:27:51,15.85,-97.07,87.8,62,5,3.47
23,Zelenoborskiy,RU,2020-08-01 16:31:02,66.84,32.36,57.43,68,63,8.39
24,Alice,US,2020-08-01 16:28:53,27.75,-98.07,89.6,66,1,8.05
25,The Valley,AI,2020-08-01 16:27:28,18.22,-63.06,87.8,70,20,10.29
26,Nsanje,MW,2020-08-01 16:31:03,-16.92,35.26,67.05,60,56,4.16
27,Simpang,ID,2020-08-01 16:31:03,-1.27,104.08,76.1,88,95,2.89
28,Ushuaia,AR,2020-08-01 16:25:36,-54.8,-68.3,41.0,93,40,3.36
29,Molina,CL,2020-08-01 16:31:03,-35.12,-71.28,57.99,58,75,8.05
30,Atuona,PF,2020-08-01 16:27:59,-9.8,-139.03,79.16,72,60,17.22
31,Kalaleh,IR,2020-08-01 16:31:04,37.38,55.49,82.4,58,0,2.35
32,Magadi,IN,2020-08-01 16:31:04,12.97,77.23,73.4,94,40,8.05
33,Bethel,US,2020-08-01 16:28:44,41.37,-73.41,86.0,48,1,4.7
34,Carnarvon,AU,2020-08-01 16:23:31,-24.87,113.63,64.4,82,48,14.99
35,Barrow,US,2020-08-01 16:28:44,71.29,-156.79,32.0,84,90,4.7
36,Antalaha,MG,2020-08-01 16:31:05,-14.9,50.28,71.33,80,33,13.09
37,Chapais,CA,2020-08-01 16:28:49,49.78,-74.85,77.0,50,90,8.05
38,Victoria,HK,2020-08-01 16:24:31,22.29,114.16,81.0,88,100,11.99
39,Sacramento,US,2020-08-01 16:30:02,38.47,-121.32,70.0,63,5,5.82
40,Bengkulu,ID,2020-08-01 16:28:46,-3.8,102.27,75.6,89,61,6.49
41,Ahipara,NZ,2020-08-01 16:28:53,-35.17,173.17,56.37,86,100,11.83
42,Kingaroy,AU,2020-08-01 16:31:06,-26.53,151.83,41.0,100,0,5.82
43,Hermanus,ZA,2020-08-01 16:28:09,-34.42,19.23,66.99,61,0,6.58
44,Bredasdorp,ZA,2020-08-01 16:27:56,-34.53,20.04,59.0,72,0,4.7
45,Anshun,CN,2020-08-01 16:31:06,26.25,105.93,66.11,95,10,3.27
46,Omboue,GA,2020-08-01 16:28:44,-1.57,9.26,76.05,73,39,11.61
47,Kudat,MY,2020-08-01 16:29:25,6.88,116.85,77.0,94,20,3.13
48,Ilulissat,GL,2020-08-01 16:28:50,69.22,-51.1,46.4,87,75,4.7
49,Courtenay,CA,2020-08-01 16:30:33,49.69,-124.99,68.0,60,20,4.7
50,Plettenberg Bay,ZA,2020-08-01 16:31:07,-34.05,23.37,56.71,85,1,5.64
51,Carballo,ES,2020-08-01 16:31:07,43.21,-8.69,72.0,68,40,12.75
52,Thompson,CA,2020-08-01 16:28:09,55.74,-97.86,66.2,45,20,10.29
53,Lebu,CL,2020-08-01 16:28:36,-37.62,-73.65,52.12,95,100,9.78
54,Zeya,RU,2020-08-01 16:29:00,53.75,127.27,58.75,88,100,5.21
55,Hilo,US,2020-08-01 16:28:13,19.73,-155.09,71.6,83,75,4.7
56,Upernavik,GL,2020-08-01 16:28:00,72.79,-56.15,42.94,64,11,12.88
57,Mar Del Plata,AR,2020-08-01 16:27:57,-38.0,-57.56,55.4,66,75,10.29
58,Poum,NC,2020-08-01 16:31:09,-20.23,164.02,68.05,75,0,26.71
59,Cochrane,CA,2020-08-01 16:26:53,51.18,-114.47,66.2,77,1,11.41
60,Severo-Kurilsk,RU,2020-08-01 16:28:37,50.68,156.12,51.89,87,48,11.21
61,Katsuura,JP,2020-08-01 16:29:32,35.13,140.3,75.0,87,18,1.01
62,Dzhuryn,UA,2020-08-01 16:31:09,49.03,25.58,68.0,60,75,6.71
63,Pevek,RU,2020-08-01 16:29:07,69.7,170.31,36.09,96,100,1.88
64,Busselton,AU,2020-08-01 16:27:52,-33.65,115.33,48.0,77,78,3.09
65,Vila Velha,BR,2020-08-01 16:28:16,-20.33,-40.29,75.0,78,40,4.7
66,Georgetown,MY,2020-08-01 16:28:02,5.41,100.34,84.2,74,20,1.03
67,Cruz Grande,MX,2020-08-01 16:31:10,16.73,-99.13,87.8,66,5,4.7
68,Nikolskoye,RU,2020-08-01 16:28:00,59.7,30.79,64.99,48,40,8.95
69,Kelamangalam,IN,2020-08-01 16:31:11,12.6,77.85,73.4,94,40,8.05
70,Gayny,RU,2020-08-01 16:31:11,60.31,54.32,57.56,90,86,4.14
71,Matara,LK,2020-08-01 16:31:11,5.95,80.54,79.18,87,42,10.11
72,Lasa,IT,2020-08-01 16:29:29,46.62,10.7,86.0,39,40,3.09
73,Vao,NC,2020-08-01 16:28:13,-22.67,167.48,66.22,69,46,18.45
74,Mokhsogollokh,RU,2020-08-01 16:31:12,61.47,128.92,53.98,75,23,2.04
75,Hobart,AU,2020-08-01 16:25:33,-42.88,147.33,53.01,66,75,8.05
76,Indian Head,US,2020-08-01 16:31:12,38.6,-77.16,86.0,66,20,8.05
77,Williams Lake,CA,2020-08-01 16:31:12,52.14,-122.14,68.0,60,20,6.93
78,Leningradskiy,RU,2020-08-01 16:31:12,69.38,178.42,39.83,73,100,2.59
79,Vaini,TO,2020-08-01 16:28:00,-21.2,-175.2,68.0,88,75,9.17
80,Avarua,CK,2020-08-01 16:27:05,-21.21,-159.78,60.8,82,35,2.24
81,Pangkalanbuun,ID,2020-08-01 16:31:13,-2.68,111.62,74.44,93,78,2.21
82,Ponta Do Sol,PT,2020-08-01 16:28:34,32.67,-17.1,77.0,60,0,4.27
83,Vernon,CA,2020-08-01 16:31:13,50.26,-119.27,80.01,41,1,2.24
84,Hamilton,US,2020-08-01 16:29:16,39.18,-84.53,82.0,74,90,5.82
85,Tura,IN,2020-08-01 16:31:14,25.52,90.22,78.01,85,64,2.33
86,Taldan,RU,2020-08-01 16:31:14,53.67,124.8,60.78,88,90,3.74
87,Falmouth,GB,2020-08-01 16:31:14,50.15,-5.07,66.99,77,40,12.75
88,Punta Arenas,CL,2020-08-01 16:28:02,-53.15,-70.92,39.2,86,75,8.05
89,Cabo San Lucas,MX,2020-08-01 16:24:29,22.89,-109.91,88.0,62,5,2.91
90,Catamarca,AR,2020-08-01 16:27:38,-28.47,-65.79,69.01,34,0,1.99
91,Talnakh,RU,2020-08-01 16:28:09,69.49,88.4,60.8,77,87,8.95
92,Chuy,UY,2020-08-01 16:28:00,-33.7,-53.46,59.67,69,19,5.48
93,Airai,TL,2020-08-01 16:28:05,-8.93,125.41,53.11,85,2,3.67
94,Mazyr,BY,2020-08-01 16:31:16,52.05,29.25,61.16,80,12,6.8
95,Faya,SA,2020-08-01 16:28:16,18.39,42.45,68.0,88,75,5.82
96,Jamestown,US,2020-08-01 16:26:31,42.1,-79.24,78.01,73,75,6.93
97,Bluff,NZ,2020-08-01 16:27:53,-46.6,168.33,52.23,79,98,12.84
98,Kudahuvadhoo,MV,2020-08-01 16:29:38,2.67,72.89,83.48,73,72,11.77
99,Kruisfontein,ZA,2020-08-01 16:28:00,-34.0,24.73,57.99,80,0,3.69
100,Fort-Shevchenko,KZ,2020-08-01 16:29:38,44.51,50.26,79.74,54,0,11.18
101,Hithadhoo,MV,2020-08-01 16:27:52,-0.6,73.08,83.34,73,69,9.69
102,Chama,CH,2020-08-01 16:31:17,47.18,8.46,82.99,54,94,4.7
103,Necochea,AR,2020-08-01 16:30:52,-38.55,-58.74,57.99,56,87,17.0
104,Dongsheng,CN,2020-08-01 16:29:49,39.82,109.98,72.55,62,38,11.01
105,Solwezi,ZM,2020-08-01 16:31:18,-12.17,26.39,63.43,38,0,5.7
106,Lagoa,PT,2020-08-01 16:29:01,39.05,-27.98,70.7,68,0,8.55
107,Albany,US,2020-08-01 16:28:02,42.6,-73.97,84.99,42,19,3.69
108,La Ronge,CA,2020-08-01 16:28:58,55.1,-105.28,69.8,60,20,6.93
109,Paralimni,CY,2020-08-01 16:31:18,35.04,33.98,96.8,70,20,16.11
110,Sabang,ID,2020-08-01 16:31:19,5.89,95.32,83.64,74,100,19.91
111,Kloulklubed,PW,2020-08-01 16:28:57,7.04,134.26,77.0,94,90,3.36
112,Acarau,BR,2020-08-01 16:31:19,-2.89,-40.12,87.84,49,94,15.61
113,Qaanaaq,GL,2020-08-01 16:27:53,77.48,-69.36,39.7,69,27,6.91
114,Tuktoyaktuk,CA,2020-08-01 16:27:58,69.45,-133.04,53.6,93,90,17.22
115,Sioux Lookout,CA,2020-08-01 16:28:14,50.1,-91.92,66.2,77,75,9.17
116,Saldanha,ZA,2020-08-01 16:28:29,-33.01,17.94,77.0,31,0,5.82
117,The Pas,CA,2020-08-01 16:31:20,53.83,-101.25,68.0,68,1,5.37
118,Port Macquarie,AU,2020-08-01 16:28:21,-31.43,152.92,43.0,97,4,4.68
119,Sao Filipe,CV,2020-08-01 16:29:57,14.9,-24.5,77.23,79,71,7.31
120,Coquimbo,CL,2020-08-01 16:24:45,-29.95,-71.34,59.0,72,20,5.82
121,Lucapa,AO,2020-08-01 16:28:22,-8.42,20.74,89.62,22,52,3.06
122,Dalby,AU,2020-08-01 16:29:28,-27.18,151.27,43.0,97,0,5.75
123,Tuatapere,NZ,2020-08-01 16:31:21,-46.13,167.68,50.23,88,100,5.06
124,Touros,BR,2020-08-01 16:29:03,-5.2,-35.46,78.8,83,40,11.41
125,Bilibino,RU,2020-08-01 16:28:28,68.05,166.44,45.99,85,100,1.7
126,Mugur-Aksy,RU,2020-08-01 16:31:22,50.35,90.5,44.69,78,81,1.9
127,Labuan,MY,2020-08-01 16:31:22,5.28,115.24,80.6,94,20,2.24
128,Nanakuli,US,2020-08-01 16:31:22,21.39,-158.15,77.0,77,20,3.36
129,Altay,CN,2020-08-01 16:28:02,47.87,88.12,63.14,38,6,6.55
130,Tramandai,BR,2020-08-01 16:31:22,-29.98,-50.13,66.7,60,10,4.56
131,Ancud,CL,2020-08-01 16:28:24,-41.87,-73.82,50.0,87,40,10.29
132,Butaritari,KI,2020-08-01 16:28:03,3.07,172.79,82.51,80,86,13.47
133,Chokurdakh,RU,2020-08-01 16:28:29,70.63,147.92,52.02,71,99,3.91
134,Port Elizabeth,ZA,2020-08-01 16:28:42,-33.92,25.57,59.0,87,0,4.7
135,Arraial Do Cabo,BR,2020-08-01 16:27:59,-22.97,-42.03,75.2,57,20,18.34
136,Naze,JP,2020-08-01 16:31:23,28.37,129.48,78.8,94,20,3.36
137,Kostomuksha,RU,2020-08-01 16:31:23,64.57,30.58,56.32,77,100,3.33
138,Jega,NG,2020-08-01 16:31:24,12.22,4.38,88.56,53,1,10.18
139,Goderich,CA,2020-08-01 16:28:30,43.75,-81.72,80.01,76,99,5.57
140,Solnechnyy,RU,2020-08-01 16:31:24,50.72,136.63,57.94,94,87,5.21
141,Mackenzie,CA,2020-08-01 16:29:04,55.3,-123.17,66.2,88,20,3.33
142,Tshikapa,CD,2020-08-01 16:31:24,-6.42,20.8,88.0,28,48,3.49
143,Price,US,2020-08-01 16:28:46,39.6,-110.81,82.4,18,1,6.93
144,Tucuman,AR,2020-08-01 16:28:08,-26.82,-65.22,69.8,32,0,6.93
145,Souillac,MU,2020-08-01 16:27:49,-20.52,57.52,71.6,88,40,12.75
146,Longyan,CN,2020-08-01 16:31:25,25.11,117.02,73.0,87,91,1.59
147,East London,ZA,2020-08-01 16:27:58,-33.02,27.91,64.53,62,0,2.15
148,Geraldton,AU,2020-08-01 16:27:54,-28.77,114.6,50.0,87,94,9.17
149,Acapulco,MX,2020-08-01 16:31:26,16.86,-99.89,87.8,66,5,4.7
150,Maracacume,BR,2020-08-01 16:31:26,-2.04,-45.96,89.22,48,82,5.35
151,Jasper,US,2020-08-01 16:31:26,37.2,-94.35,77.0,64,1,10.29
152,Blagoyevo,RU,2020-08-01 16:28:56,63.37,47.92,57.72,77,31,3.85
153,Kodiak,US,2020-08-01 16:23:57,57.79,-152.41,51.8,87,90,3.36
154,Portland,US,2020-08-01 16:28:27,45.52,-122.68,64.0,77,90,4.7
155,Ixtapa,MX,2020-08-01 16:28:02,20.7,-105.2,82.4,78,75,2.08
156,Cidreira,BR,2020-08-01 16:28:31,-30.18,-50.21,65.01,63,0,6.2
157,Longyearbyen,SJ,2020-08-01 16:29:00,78.22,15.64,51.8,76,0,4.7
158,Saint Anthony,US,2020-08-01 16:31:27,45.02,-93.22,82.0,54,1,8.05
159,Nhulunbuy,AU,2020-08-01 16:31:28,-12.23,136.77,69.8,73,9,8.05
160,Salmon Arm,CA,2020-08-01 16:30:43,50.7,-119.3,80.76,54,40,1.39
161,Berkak,NO,2020-08-01 16:31:28,62.83,10.01,73.99,57,0,1.99
162,Kirkuk,IQ,2020-08-01 16:31:28,35.47,44.39,92.3,12,0,9.28
163,Dingle,PH,2020-08-01 16:31:28,11.0,122.67,77.16,85,100,2.28
164,Salta,AR,2020-08-01 16:29:13,-24.79,-65.41,66.2,25,0,2.24
165,Ternate,ID,2020-08-01 16:28:53,0.8,127.4,80.11,78,96,1.86
166,Ponta Delgada,PT,2020-08-01 16:26:24,37.73,-25.67,73.4,69,75,6.93
167,Rockport,US,2020-08-01 16:31:29,28.02,-97.05,89.6,62,75,3.36
168,New Norfolk,AU,2020-08-01 16:28:29,-42.78,147.06,53.01,75,43,3.0
169,Newtown Saint Boswells,GB,2020-08-01 16:31:32,55.58,-2.68,64.0,66,41,10.4
170,Wangqing,CN,2020-08-01 16:31:32,43.32,129.76,66.15,93,100,1.12
171,Khatanga,RU,2020-08-01 16:28:05,71.97,102.5,66.97,57,100,8.34
172,Llanes,ES,2020-08-01 16:31:33,43.42,-4.75,72.0,65,86,7.29
173,Biak,ID,2020-08-01 16:31:33,-0.91,122.88,75.65,85,94,3.6
174,Kieta,PG,2020-08-01 16:31:33,-6.22,155.63,77.5,77,100,2.19
175,Kaitangata,NZ,2020-08-01 16:28:10,-46.28,169.85,48.99,75,66,3.0
176,Kokopo,PG,2020-08-01 16:31:33,-4.35,152.26,78.04,86,91,12.68
177,Itarema,BR,2020-08-01 16:29:41,-2.92,-39.92,88.09,48,91,15.75
178,Tasiilaq,GL,2020-08-01 16:27:52,65.61,-37.64,57.2,55,20,3.36
179,Vostok,RU,2020-08-01 16:31:34,46.49,135.88,62.67,100,100,4.5
180,Obama,JP,2020-08-01 16:31:34,35.5,135.75,78.01,87,0,3.6
181,Kiama,AU,2020-08-01 16:31:35,-34.68,150.87,50.0,69,0,5.17
182,Waipawa,NZ,2020-08-01 16:28:38,-41.41,175.52,48.2,87,98,5.82
183,Ambon,ID,2020-08-01 16:29:10,-3.7,128.18,75.99,94,75,4.7
184,Soe,ID,2020-08-01 16:31:35,-9.86,124.28,62.06,100,14,5.19
185,Sierra Vista,US,2020-08-01 16:27:44,31.55,-110.3,86.0,39,1,2.84
186,Chernogorsk,RU,2020-08-01 16:31:36,53.82,91.28,59.0,77,100,4.47
187,Kalga,RU,2020-08-01 16:31:36,50.93,118.9,61.66,92,66,3.0
188,Garden City,US,2020-08-01 16:31:36,42.33,-83.33,81.0,57,90,8.05
189,Tripoli,LY,2020-08-01 16:31:21,32.88,13.19,85.3,54,0,10.0
190,Lufkin,US,2020-08-01 16:31:36,31.34,-94.73,82.4,78,90,3.36
191,Koungou,YT,2020-08-01 16:31:37,-12.73,45.2,77.0,78,20,6.93
192,Gravdal,NO,2020-08-01 16:28:49,68.12,13.5,59.58,78,24,8.61
193,Luderitz,NA,2020-08-01 16:28:53,-26.65,15.16,86.0,12,0,8.05
194,Port Hueneme,US,2020-08-01 16:31:37,34.15,-119.2,75.99,77,1,6.93
195,Anadyr,RU,2020-08-01 16:28:55,64.75,177.48,50.0,76,75,8.95
196,Satte,JP,2020-08-01 16:31:38,36.07,139.72,80.01,63,28,5.46
197,Saint-Georges,GD,2020-08-01 16:31:38,12.06,-61.75,86.0,79,40,14.99
198,Amilly,FR,2020-08-01 16:31:38,47.97,2.77,86.0,42,31,1.99
199,Husavik,IS,2020-08-01 16:28:03,66.04,-17.34,59.0,72,75,8.05
200,Gijon,ES,2020-08-01 16:31:38,43.54,-5.66,70.0,74,83,4.88
201,Winnemucca,US,2020-08-01 16:29:22,40.97,-117.74,82.4,12,1,4.7
202,Amet,IN,2020-08-01 16:30:21,25.3,73.93,80.58,79,97,5.66
203,Ribeira Grande,PT,2020-08-01 16:28:28,38.52,-28.7,77.0,65,20,6.93
204,Yulara,AU,2020-08-01 16:29:32,-25.24,130.99,44.6,28,0,3.36
205,Ketchikan,US,2020-08-01 16:28:15,55.34,-131.65,64.4,82,90,23.04
206,Leh,IN,2020-08-01 16:31:40,34.17,77.58,66.74,30,35,6.6
207,Severomuysk,RU,2020-08-01 16:31:40,56.15,113.43,53.56,99,81,3.87
208,Sitka,US,2020-08-01 16:29:04,57.05,-135.33,62.6,72,90,10.29
209,Norman Wells,CA,2020-08-01 16:28:28,65.28,-126.83,69.8,68,20,6.93
210,Mahebourg,MU,2020-08-01 16:28:30,-20.41,57.7,71.6,88,40,12.75
211,Seshcha,RU,2020-08-01 16:31:40,53.74,33.34,56.68,87,91,11.83
212,Dikson,RU,2020-08-01 16:27:59,73.51,80.55,49.53,94,56,2.8
213,Bambanglipuro,ID,2020-08-01 16:31:41,-7.95,110.28,74.93,82,43,8.66
214,Puerto Baquerizo Moreno,EC,2020-08-01 16:31:41,-0.9,-89.6,69.8,88,75,11.41
215,Narsaq,GL,2020-08-01 16:29:34,60.92,-46.05,57.2,54,75,5.82
216,Sungaipenuh,ID,2020-08-01 16:31:41,-2.08,101.38,64.18,89,100,1.83
217,Port Hedland,AU,2020-08-01 16:31:42,-20.32,118.57,62.6,33,0,8.05
218,Aklavik,CA,2020-08-01 16:28:57,68.22,-135.01,59.0,87,75,8.05
219,Northam,GB,2020-08-01 16:31:42,51.03,-4.22,64.0,75,44,5.99
220,Te Anau,NZ,2020-08-01 16:31:42,-45.42,167.72,50.47,92,99,3.53
221,Somanda,TZ,2020-08-01 16:31:43,-3.37,33.95,75.88,32,0,11.97
222,Wewak,PG,2020-08-01 16:31:43,-3.55,143.63,79.43,82,97,9.37
223,Hofn,IS,2020-08-01 16:28:52,64.25,-15.21,52.16,91,100,19.66
224,Pacific Grove,US,2020-08-01 16:27:43,36.62,-121.92,62.6,77,90,5.82
225,Guerrero Negro,MX,2020-08-01 16:27:57,27.98,-114.06,81.19,54,27,2.42
226,Portoferraio,IT,2020-08-01 16:31:43,42.81,10.31,87.8,74,5,2.24
227,Mayor Pablo Lagerenza,PY,2020-08-01 16:31:44,-19.93,-60.77,94.71,21,0,10.51
228,Bubaque,GW,2020-08-01 16:31:44,11.28,-15.83,81.52,80,53,12.68
229,Khromtau,KZ,2020-08-01 16:31:44,50.25,58.43,75.58,31,29,2.35
230,Manokwari,ID,2020-08-01 16:29:11,-0.87,134.08,80.13,75,91,5.7
231,Lavrentiya,RU,2020-08-01 16:28:38,65.58,-171.0,40.21,81,0,7.76
232,Aden,YE,2020-08-01 16:28:03,12.78,45.04,87.64,69,0,22.79
233,Bathsheba,BB,2020-08-01 16:29:28,13.22,-59.52,87.8,66,40,12.75
234,Buenos Aires,AR,2020-08-01 16:31:11,-34.61,-58.38,61.0,77,61,9.17
235,Tadine,NC,2020-08-01 16:31:46,-21.55,167.88,65.61,75,4,17.36
236,Faanui,PF,2020-08-01 16:27:50,-16.48,-151.75,77.36,81,25,13.67
237,Petrykivka,UA,2020-08-01 16:31:47,48.73,34.64,71.6,46,11,11.18
238,Helong,CN,2020-08-01 16:31:47,42.54,129.0,67.01,91,100,1.45
239,Biltine,TD,2020-08-01 16:28:37,14.53,20.92,81.75,68,100,13.76
240,Pereira Barreto,BR,2020-08-01 16:31:47,-20.64,-51.11,86.04,29,5,4.54
241,Saint-Pierre,RE,2020-08-01 16:28:30,-21.34,55.48,68.0,88,75,9.17
242,Acapetahua,MX,2020-08-01 16:31:47,15.28,-92.7,86.0,84,75,2.24
243,Dhidhdhoo,MV,2020-08-01 16:29:02,6.88,73.1,82.94,76,100,17.69
244,Pimentel,PE,2020-08-01 16:31:48,-6.84,-79.93,69.8,64,66,10.29
245,Burnie,AU,2020-08-01 16:31:48,-41.07,145.92,51.01,80,43,1.99
246,Padang,ID,2020-08-01 16:31:48,-0.95,100.35,77.72,80,86,3.27
247,College,US,2020-08-01 16:31:48,64.86,-147.8,62.01,77,75,2.66
248,Bambous Virieux,MU,2020-08-01 16:28:27,-20.34,57.76,71.6,88,40,12.75
249,Huanuco,PE,2020-08-01 16:31:16,-9.93,-76.24,75.2,41,20,5.82
250,Alice Springs,AU,2020-08-01 16:24:40,-23.7,133.88,39.2,32,0,5.82
251,Faqirwali,PK,2020-08-01 16:31:49,29.47,73.03,101.66,31,51,7.85
252,Bud,US,2020-08-01 16:31:49,39.45,-86.18,70.0,94,90,3.94
253,Verkhnevilyuysk,RU,2020-08-01 16:28:14,63.45,120.32,56.79,71,0,2.39
254,Nome,US,2020-08-01 16:28:12,64.5,-165.41,53.6,81,40,6.93
255,Clyde River,CA,2020-08-01 16:31:50,70.47,-68.59,44.6,93,75,5.82
256,Malakal,SS,2020-08-01 16:31:50,9.53,31.66,74.37,89,96,1.83
257,Odessa,UA,2020-08-01 16:30:32,46.48,30.73,77.0,36,78,13.42
258,Kavaratti,IN,2020-08-01 16:28:19,10.57,72.64,80.96,83,100,20.38
259,Asau,RO,2020-08-01 16:29:28,46.43,26.4,68.0,66,70,4.54
260,Lilongwe,MW,2020-08-01 16:31:52,-13.97,33.79,66.2,45,2,18.34
261,Kavieng,PG,2020-08-01 16:28:13,-2.57,150.8,79.18,86,100,8.19
262,Birjand,IR,2020-08-01 16:31:52,32.87,59.22,86.0,17,32,9.17
263,Tarko-Sale,RU,2020-08-01 16:29:04,64.92,77.78,57.0,90,100,16.8
264,Suhbaatar,MN,2020-08-01 16:31:52,50.23,106.21,61.25,83,100,4.76
265,Henties Bay,NA,2020-08-01 16:28:31,-22.12,14.28,84.99,23,0,12.46
266,Raga,SS,2020-08-01 16:31:53,8.46,25.68,72.82,91,100,3.96
267,Smithers,CA,2020-08-01 16:28:21,54.78,-127.17,66.2,68,20,2.24
268,Esperance,AU,2020-08-01 16:28:17,-33.87,121.9,46.4,87,72,8.05
269,Sorland,NO,2020-08-01 16:27:55,67.67,12.69,56.5,88,48,12.59
270,Namibe,AO,2020-08-01 16:31:53,-15.2,12.15,68.95,79,0,7.2
271,San Patricio,MX,2020-08-01 16:27:51,19.22,-104.7,86.0,74,40,11.41
272,Sarishabari,BD,2020-08-01 16:31:54,24.73,89.83,86.41,77,98,5.37
273,Aswan,EG,2020-08-01 16:31:54,24.09,32.91,108.01,13,9,10.85
274,Fortuna,US,2020-08-01 16:28:25,40.6,-124.16,59.0,1,16,3.0
275,Bay Roberts,CA,2020-08-01 16:28:26,47.6,-53.26,70.0,83,75,8.05
276,Teguldet,RU,2020-08-01 16:29:02,57.31,88.17,57.09,76,100,3.06
277,Chanute,US,2020-08-01 16:31:55,37.68,-95.46,80.6,61,40,8.05
278,Zabol,AF,2020-08-01 16:31:55,32.25,67.25,73.65,20,0,9.08
279,Sohag,EG,2020-08-01 16:31:55,26.56,31.69,104.0,12,4,17.22
280,Tahoua,NE,2020-08-01 16:31:55,14.89,5.27,89.6,49,20,11.41
281,Miedzychod,PL,2020-08-01 16:28:00,52.6,15.9,82.99,28,0,8.05
282,Saint-Augustin,CA,2020-08-01 16:31:55,51.23,-58.65,61.47,77,98,7.65
283,Elesbao Veloso,BR,2020-08-01 16:31:56,-6.2,-42.14,92.82,32,11,9.89
284,Mbarara,UG,2020-08-01 16:31:56,-0.61,30.65,76.12,38,75,8.72
285,Tshane,BW,2020-08-01 16:31:56,-24.02,21.87,60.76,29,0,8.21
286,Rongcheng,CN,2020-08-01 16:31:56,30.63,117.85,81.21,82,84,3.13
287,At-Bashi,KG,2020-08-01 16:31:57,41.17,75.81,62.15,55,99,2.48
288,Xingtai,CN,2020-08-01 16:31:57,37.06,114.49,83.26,61,95,5.66
289,Ust-Maya,RU,2020-08-01 16:29:51,60.42,134.53,50.81,91,8,0.89
290,Jumla,NP,2020-08-01 16:31:58,29.27,82.18,64.22,72,65,0.72
291,El Dorado,US,2020-08-01 16:31:58,33.21,-92.67,80.6,69,20,8.05
292,Belaya Gora,RU,2020-08-01 16:31:58,68.53,146.42,46.53,86,21,4.09
293,Robe,AU,2020-08-01 16:31:59,-37.18,139.75,55.6,79,91,5.21
294,Tiksi,RU,2020-08-01 16:28:17,71.69,128.87,39.29,90,4,2.3
295,Vardo,NO,2020-08-01 16:25:17,70.37,31.11,49.14,88,100,15.17
296,Constitucion,CL,2020-08-01 16:28:21,-35.33,-72.42,55.27,81,100,21.52
297,Barguzin,RU,2020-08-01 16:31:59,53.62,109.62,61.59,86,99,0.92
298,Cordoba,AR,2020-08-01 16:28:23,-31.41,-64.18,78.8,27,5,23.04
299,Laguna,US,2020-08-01 16:28:12,38.42,-121.42,68.0,72,1,3.36
300,Gimli,CA,2020-08-01 16:32:00,50.63,-96.99,73.0,99,0,3.0
301,Kyabe,TD,2020-08-01 16:32:00,9.45,18.94,77.86,87,97,1.97
302,Ulaangom,MN,2020-08-01 16:29:19,49.98,92.07,57.09,61,0,3.87
303,Mizdah,LY,2020-08-01 16:32:01,31.45,12.98,96.53,11,0,13.4
304,Najran,SA,2020-08-01 16:32:01,17.49,44.13,89.6,38,40,4.7
305,Isabela,PH,2020-08-01 16:32:01,6.71,121.97,78.8,94,75,2.24
306,Cayenne,GF,2020-08-01 16:28:35,4.93,-52.33,87.8,66,45,11.41
307,Pytalovo,RU,2020-08-01 16:32:01,57.07,27.91,61.77,72,0,6.87
308,Alekseyevsk,RU,2020-08-01 16:32:02,57.84,108.35,63.37,64,98,11.86
309,Muros,ES,2020-08-01 16:32:02,42.78,-9.06,77.0,54,9,10.0
310,Maldonado,UY,2020-08-01 16:32:02,-34.67,-54.92,64.0,59,0,9.17
311,San Jose,US,2020-08-01 16:29:48,37.34,-121.89,68.0,68,20,2.26
312,Obsharovka,RU,2020-08-01 16:32:03,53.12,48.85,62.53,94,93,5.21
313,Kantunilkin,MX,2020-08-01 16:32:03,21.09,-87.45,89.6,66,75,9.17
314,Natal,BR,2020-08-01 16:27:01,-5.79,-35.21,84.2,66,75,20.8
315,Hakkari,TR,2020-08-01 16:27:33,37.58,44.17,78.8,27,40,10.29
316,Oktyabrskiy,RU,2020-08-01 16:28:38,54.48,53.47,66.92,89,100,9.82
317,Aljustrel,PT,2020-08-01 16:32:04,37.88,-8.17,96.8,25,0,10.29
318,Paamiut,GL,2020-08-01 16:32:04,61.99,-49.67,45.63,93,100,11.68
319,Shintomi,JP,2020-08-01 16:32:04,32.08,131.47,77.79,83,96,3.51
320,Axim,GH,2020-08-01 16:29:18,4.87,-2.24,78.73,71,19,10.22
321,Tuy Hoa,VN,2020-08-01 16:32:05,13.08,109.3,79.25,78,100,5.32
322,Maloy,NO,2020-08-01 16:32:05,61.94,5.11,75.2,72,75,11.41
323,Natchez,US,2020-08-01 16:32:05,31.56,-91.4,75.2,94,90,8.05
324,Torbay,CA,2020-08-01 16:28:39,47.67,-52.73,69.8,83,75,8.05
325,Flinders,AU,2020-08-01 16:28:30,-34.58,150.86,50.0,84,0,1.01
326,Ler,SS,2020-08-01 16:32:06,8.3,30.14,73.85,91,65,3.91
327,Slave Lake,CA,2020-08-01 16:29:11,55.28,-114.77,71.6,60,1,17.22
328,Fort Nelson,CA,2020-08-01 16:30:37,58.81,-122.7,73.4,64,40,4.7
329,Keuruu,FI,2020-08-01 16:32:06,62.27,24.7,68.0,52,79,6.93
330,Armacao De Pera,PT,2020-08-01 16:32:07,37.1,-8.36,82.4,65,0,10.29
331,Dunedin,NZ,2020-08-01 16:32:07,-45.87,170.5,48.0,93,22,1.99
332,Grand Gaube,MU,2020-08-01 16:32:07,-20.01,57.66,71.01,79,11,4.0
333,Samarai,PG,2020-08-01 16:32:07,-10.62,150.67,75.56,72,22,10.92
334,Maceio,BR,2020-08-01 16:32:08,-9.67,-35.74,75.2,88,75,14.99
335,Sulangan,PH,2020-08-01 16:32:08,11.14,123.72,82.09,72,100,0.67
336,Vytegra,RU,2020-08-01 16:32:08,61.01,36.45,59.02,74,6,7.65
337,Berezovyy,RU,2020-08-01 16:32:08,51.67,135.7,57.09,91,99,3.36
338,Antibes,FR,2020-08-01 16:32:09,43.56,7.13,88.0,70,20,3.36
339,Yerbogachen,RU,2020-08-01 16:28:04,61.28,108.01,58.73,75,0,6.15
340,Garoua Boulai,CM,2020-08-01 16:32:09,5.88,14.55,69.82,92,99,3.2
341,Matagami,CA,2020-08-01 16:29:06,49.75,-77.63,75.2,53,40,4.99
342,Port Lincoln,AU,2020-08-01 16:27:52,-34.73,135.87,54.48,90,7,5.91
343,Izberbash,RU,2020-08-01 16:32:12,42.57,47.86,78.8,69,59,6.71
344,Ostrovnoy,RU,2020-08-01 16:28:27,68.05,39.51,52.61,88,79,14.25
345,Dehloran,IR,2020-08-01 16:32:13,32.69,47.27,99.77,8,0,8.81
346,Evensk,RU,2020-08-01 16:32:13,61.95,159.23,51.87,62,5,9.06
347,Avera,US,2020-08-01 16:28:34,33.19,-82.53,91.4,52,40,9.17
348,Keningau,MY,2020-08-01 16:32:13,5.34,116.16,78.8,83,20,4.7
349,La Palma,US,2020-08-01 16:31:10,33.85,-118.05,75.2,57,1,4.7
350,Santo Antonio Do Ica,BR,2020-08-01 16:32:14,-3.1,-67.94,92.08,38,24,4.29
351,Sur,OM,2020-08-01 16:28:20,22.57,59.53,85.98,67,0,11.36
352,Belyy Yar,RU,2020-08-01 16:32:14,53.6,91.39,59.0,77,99,4.47
353,Golden,US,2020-08-01 16:32:15,39.76,-105.22,81.0,27,20,4.7
354,Aasiaat,GL,2020-08-01 16:32:15,68.71,-52.87,40.28,97,100,9.13
355,Neiafu,TO,2020-08-01 16:32:15,-18.65,-173.98,71.6,78,75,18.77
356,Berdigestyakh,RU,2020-08-01 16:32:15,62.1,126.7,55.29,66,0,2.21
357,Eureka,US,2020-08-01 16:29:23,40.8,-124.16,60.01,100,29,1.01
358,Taiyuan,CN,2020-08-01 16:32:16,37.87,112.56,69.8,83,20,4.47
359,Hasaki,JP,2020-08-01 16:28:10,35.73,140.83,72.0,94,75,8.05
360,Inverell,AU,2020-08-01 16:32:16,-29.78,151.12,39.99,77,0,1.99
361,Port Blair,IN,2020-08-01 16:26:14,11.67,92.75,81.93,81,100,24.72
362,Nokaneng,BW,2020-08-01 16:32:16,-19.67,22.27,64.72,25,0,7.61
363,Saint-Joseph,RE,2020-08-01 16:32:17,-21.37,55.62,68.0,88,75,9.17
364,Tessalit,ML,2020-08-01 16:27:58,20.2,1.01,104.97,16,0,10.78
365,Makat,KZ,2020-08-01 16:32:17,47.65,53.35,87.75,17,0,7.83
366,Weihe,CN,2020-08-01 16:32:17,33.0,105.32,61.9,79,25,2.98
367,Shingu,JP,2020-08-01 16:32:17,33.73,135.98,74.68,89,81,2.89
368,Bandarbeyla,SO,2020-08-01 16:28:32,9.49,50.81,79.68,68,62,30.91
369,Tautira,PF,2020-08-01 16:28:31,-17.73,-149.15,73.4,73,20,3.36
370,Havoysund,NO,2020-08-01 16:29:20,71.0,24.66,50.0,81,75,8.05
371,Kundiawa,PG,2020-08-01 16:32:18,-6.02,144.97,64.04,81,100,1.39
372,Petropavlovsk-Kamchatskiy,RU,2020-08-01 16:28:11,53.05,158.65,48.2,100,31,6.71
373,Sangalhos,PT,2020-08-01 16:32:18,40.49,-8.47,84.99,77,0,14.0
374,Huejucar,MX,2020-08-01 16:32:19,22.35,-103.22,74.66,51,34,7.54
375,Coihaique,CL,2020-08-01 16:29:22,-45.58,-72.07,39.2,93,90,6.93
376,Tanout,NE,2020-08-01 16:32:19,14.97,8.89,92.07,37,6,13.89
377,Los Corrales De Buelna,ES,2020-08-01 16:32:20,43.26,-4.07,72.0,96,99,3.0
378,Ponta Pora,BR,2020-08-01 16:29:58,-22.54,-55.73,77.0,50,0,13.87
379,San Juan Del Sur,NI,2020-08-01 16:32:20,11.25,-85.87,87.8,66,20,4.7
380,Tabou,CI,2020-08-01 16:28:27,4.42,-7.35,76.01,80,99,12.66
381,Verkhnyaya Inta,RU,2020-08-01 16:32:20,65.98,60.31,56.43,84,100,8.19
382,Cap-Aux-Meules,CA,2020-08-01 16:31:01,47.38,-61.86,64.4,82,90,18.34
383,Srednekolymsk,RU,2020-08-01 16:29:18,67.45,153.68,42.4,88,72,1.12
384,Lompoc,US,2020-08-01 16:27:48,34.64,-120.46,57.2,87,90,5.82
385,Tateyama,JP,2020-08-01 16:32:21,34.98,139.87,75.99,87,0,1.01
386,Bilma,NE,2020-08-01 16:32:21,18.69,12.92,98.51,30,85,8.05
387,Kroya,ID,2020-08-01 16:32:21,-7.63,109.25,74.64,84,41,8.19
388,Pangoa,PE,2020-08-01 16:32:22,-12.12,-73.0,82.94,45,56,3.98
389,Beloha,MG,2020-08-01 16:28:55,-25.17,45.05,61.59,70,0,10.63
390,Lalibela,ET,2020-08-01 16:32:22,12.03,39.03,54.95,92,90,0.87
391,Porto Feliz,BR,2020-08-01 16:32:22,-23.21,-47.52,77.0,44,0,3.0
392,Tigil,RU,2020-08-01 16:32:23,57.8,158.67,44.01,95,0,3.74
393,Provideniya,RU,2020-08-01 16:28:14,64.38,-173.3,43.07,80,0,7.2
394,Rundu,NA,2020-08-01 16:32:23,-17.93,19.77,65.12,26,0,6.87
395,Lazarev,RU,2020-08-01 16:32:23,52.23,141.51,57.0,98,100,12.21
396,Rovaniemi,FI,2020-08-01 16:29:10,66.5,25.72,62.6,72,85,4.7
397,Porbandar,IN,2020-08-01 16:32:24,21.64,69.61,86.05,78,100,7.9
398,Karratha,AU,2020-08-01 16:29:18,-20.74,116.85,69.51,37,0,3.33
399,Alenquer,BR,2020-08-01 16:32:24,-1.94,-54.74,94.78,36,14,6.89
400,Shiyan,CN,2020-08-01 16:32:24,32.65,110.78,79.27,84,100,1.5
401,Salinas,US,2020-08-01 16:32:24,36.68,-121.66,64.4,82,90,5.82
402,Mandurah,AU,2020-08-01 16:29:05,-32.55,115.7,50.0,79,75,7.61
403,Alofi,NU,2020-08-01 16:24:45,-19.06,-169.92,59.0,100,43,4.7
404,Altamont,US,2020-08-01 16:32:25,42.21,-121.74,70.0,52,1,5.82
405,Kovdor,RU,2020-08-01 16:32:25,67.57,30.48,53.19,72,81,7.81
406,Sola,VU,2020-08-01 16:28:03,-13.88,167.55,75.2,100,40,3.78
407,Iqaluit,CA,2020-08-01 16:28:20,63.75,-68.51,59.0,77,75,20.8
408,Shanghai,CN,2020-08-01 16:28:45,31.22,121.46,86.0,74,47,15.66
409,Muscat,OM,2020-08-01 16:32:26,23.61,58.59,87.8,84,2,5.82
410,Wasilla,US,2020-08-01 16:32:26,61.58,-149.44,55.4,100,90,2.1
411,Gat,IL,2020-08-01 16:32:26,31.61,34.76,86.0,56,0,5.84
412,Palu,ID,2020-08-01 16:29:00,-0.89,119.87,75.4,82,100,1.97
413,Menongue,AO,2020-08-01 16:32:27,-14.66,17.69,68.76,27,0,5.59
414,Scottsbluff,US,2020-08-01 16:32:27,41.87,-103.67,78.8,44,1,10.29
415,Kwaluseni,SZ,2020-08-01 16:32:27,-26.48,31.33,61.66,42,0,3.56
416,Vila,PT,2020-08-01 16:29:33,42.03,-8.16,84.0,45,3,5.99
417,Sucre,BO,2020-08-01 16:27:38,-19.03,-65.26,55.85,64,85,5.82
418,Balabac,PH,2020-08-01 16:32:28,7.99,117.06,82.38,75,100,2.75
419,Simitli,BG,2020-08-01 16:32:28,41.88,23.12,87.01,43,6,18.99
420,Pangnirtung,CA,2020-08-01 16:29:04,66.15,-65.71,48.2,93,90,12.75
421,Opuwo,NA,2020-08-01 16:32:28,-18.06,13.84,69.13,24,0,8.3
422,Torres,BR,2020-08-01 16:32:28,-29.34,-49.73,66.51,56,0,3.96
423,Chimbote,PE,2020-08-01 16:28:20,-9.09,-78.58,64.99,74,89,8.03
424,Kolar,IN,2020-08-01 16:32:29,13.13,78.13,73.4,100,40,10.29
425,Ozieri,IT,2020-08-01 16:32:29,40.59,9.0,93.2,44,4,9.17
426,Ahar,IR,2020-08-01 16:32:29,38.48,47.07,72.7,35,25,5.53
427,Zhezkazgan,KZ,2020-08-01 16:32:30,47.8,67.71,81.21,25,86,12.62
428,Homer,US,2020-08-01 16:28:38,59.64,-151.55,55.0,93,90,4.7
429,Rocha,UY,2020-08-01 16:29:12,-34.48,-54.33,61.99,66,4,7.25
430,Santa Rosa,PH,2020-08-01 16:32:30,14.31,121.11,78.8,94,100,3.42
431,Aranos,NA,2020-08-01 16:32:30,-24.13,19.12,62.33,26,0,10.31
432,Kayerkan,RU,2020-08-01 16:32:30,69.35,87.76,60.8,77,93,8.95
433,San Joaquin,VE,2020-08-01 16:32:31,10.26,-67.79,81.84,66,32,5.23
434,Bogorodskoye,RU,2020-08-01 16:32:31,56.55,37.88,58.73,93,84,6.67
435,Launceston,AU,2020-08-01 16:32:31,-41.45,147.17,51.8,93,90,17.22
436,Almaznyy,RU,2020-08-01 16:32:31,48.04,40.05,75.2,47,20,6.71
437,Potosi,BO,2020-08-01 16:31:24,-19.58,-65.75,57.22,29,48,4.81
438,Flin Flon,CA,2020-08-01 16:24:21,54.77,-101.86,68.0,60,20,4.7
439,Diffa,NE,2020-08-01 16:32:32,13.32,12.61,93.97,36,82,6.98
440,Yuzhne,UA,2020-08-01 16:32:32,46.62,31.1,77.0,36,50,13.42
441,Mogapi,BW,2020-08-01 16:32:32,-22.32,27.83,71.6,43,0,7.0
442,Moengo,SR,2020-08-01 16:32:32,5.62,-54.4,83.71,88,31,0.87
443,Baijiantan,CN,2020-08-01 16:32:33,45.63,85.18,84.07,20,46,5.93
444,Marienburg,PL,2020-08-01 16:28:26,54.04,19.03,72.0,65,0,8.52
445,Oakdale,US,2020-08-01 16:32:33,44.96,-92.96,81.0,57,1,5.06
446,Ginir,ET,2020-08-01 16:32:33,7.13,40.7,58.6,82,57,11.54
447,Hailar,CN,2020-08-01 16:32:34,49.2,119.7,62.67,84,20,6.15
448,Rustenburg,ZA,2020-08-01 16:32:34,-25.67,27.24,60.22,26,0,0.58
449,Hounde,BF,2020-08-01 16:32:34,11.5,-3.52,82.22,73,70,7.4
450,General Roca,AR,2020-08-01 16:32:34,-39.03,-67.58,53.6,54,100,2.24
451,Houston,US,2020-08-01 16:30:05,29.76,-95.36,73.99,88,1,2.24
452,Kolokani,ML,2020-08-01 16:32:35,13.57,-8.03,83.1,74,90,0.94
453,Sinop,TR,2020-08-01 16:28:49,41.77,34.87,67.96,87,55,5.46
454,Pontianak,ID,2020-08-01 16:32:35,-0.03,109.33,76.5,92,100,3.78
455,Vestmanna,FO,2020-08-01 16:32:35,62.16,-7.17,53.6,87,27,14.99
456,Kichera,RU,2020-08-01 16:32:35,55.94,110.1,63.73,81,90,1.99
457,Meulaboh,ID,2020-08-01 16:29:40,4.14,96.13,77.41,86,100,3.85
458,Wynyard,AU,2020-08-01 16:32:36,-41.0,145.72,48.0,80,55,1.01
459,Astara,AZ,2020-08-01 16:32:36,38.5,48.67,78.8,74,40,8.05
460,Winsford,GB,2020-08-01 16:32:36,53.18,-2.52,64.99,69,75,5.01
461,Walvis Bay,NA,2020-08-01 16:32:36,-22.96,14.51,93.2,20,0,8.05
462,Kiruna,SE,2020-08-01 16:32:36,67.86,20.23,64.4,59,7,13.87
463,Hrymayliv,UA,2020-08-01 16:32:37,49.33,26.01,61.54,85,7,9.1
464,Jaque,PA,2020-08-01 16:32:37,7.52,-78.17,83.93,74,39,6.96
465,Ulcinj,ME,2020-08-01 16:32:37,41.93,19.22,100.4,19,20,9.17
466,Bam,IR,2020-08-01 16:32:37,29.11,58.36,85.84,31,52,25.86
467,Predivinsk,RU,2020-08-01 16:32:37,57.07,93.44,59.76,93,100,2.44
468,Elliot,ZA,2020-08-01 16:32:38,-31.33,27.85,53.69,31,0,6.02
469,Nelson Bay,AU,2020-08-01 16:28:33,-32.72,152.15,46.0,100,0,6.64
470,Sebu,PH,2020-08-01 16:32:38,6.22,124.69,69.55,94,100,1.19
471,Maraba,BR,2020-08-01 16:32:38,-5.37,-49.12,95.0,30,20,6.93
472,Kutum,SD,2020-08-01 16:29:39,14.2,24.67,69.01,82,100,20.96
473,Santa Maria,BR,2020-08-01 16:32:39,-29.68,-53.81,69.8,64,12,8.05
474,Dauphin,CA,2020-08-01 16:32:39,51.15,-100.05,71.6,60,1,5.82
475,Camana,PE,2020-08-01 16:32:39,-16.62,-72.71,64.99,63,85,7.23
476,Horgos,RS,2020-08-01 16:32:39,46.16,19.97,82.0,30,0,7.05
477,Los Alamos,US,2020-08-01 16:32:39,35.89,-106.31,79.0,40,1,3.15
478,San Felipe,VE,2020-08-01 16:32:40,10.34,-68.74,88.57,52,11,9.84
479,Quelimane,MZ,2020-08-01 16:29:04,-17.88,36.89,73.4,64,40,4.7
480,Turukhansk,RU,2020-08-01 16:32:40,65.82,87.98,54.95,68,14,6.51
481,Kuytun,RU,2020-08-01 16:32:40,54.34,101.5,59.05,95,95,14.25
482,Wilmington,US,2020-08-01 16:31:27,34.23,-77.94,93.99,59,1,9.17
483,Matata,NZ,2020-08-01 16:32:41,-37.88,176.75,54.0,75,99,1.01
484,Sand Springs,US,2020-08-01 16:32:41,36.14,-96.11,82.99,61,75,3.36
485,Xam Nua,LA,2020-08-01 16:29:19,20.42,104.04,69.3,95,100,2.28
486,Usakos,NA,2020-08-01 16:32:41,-22.0,15.6,72.03,20,0,12.08
487,Kasangulu,CD,2020-08-01 16:32:41,-4.59,15.17,78.8,65,86,9.17
488,Nagua,DO,2020-08-01 16:32:42,19.38,-69.85,86.0,79,40,6.93
489,Aktash,RU,2020-08-01 16:32:42,50.3,87.73,39.2,94,6,1.43
490,Sulzbach-Rosenberg,DE,2020-08-01 16:32:21,49.5,11.75,93.0,21,1,3.8
491,Nevelsk,RU,2020-08-01 16:32:42,46.67,141.86,59.0,93,90,4.47
492,Abha,SA,2020-08-01 16:32:42,18.22,42.51,68.0,88,75,5.82
493,Ust-Nera,RU,2020-08-01 16:32:43,64.57,143.2,49.26,61,0,2.04
494,Lewisporte,CA,2020-08-01 16:32:43,49.25,-55.05,66.2,88,90,3.36
495,Lorengau,PG,2020-08-01 16:29:12,-2.02,147.27,80.42,83,100,10.69
496,Miri,MY,2020-08-01 16:28:33,4.41,114.01,78.01,100,40,1.32
497,Menzelinsk,RU,2020-08-01 16:32:46,55.73,53.1,57.2,100,75,13.42
498,Mount Gambier,AU,2020-08-01 16:29:02,-37.83,140.77,50.0,93,90,6.93
499,Virginia Beach,US,2020-08-01 16:32:47,36.85,-75.98,84.2,74,75,6.93
500,Kamenka,RU,2020-08-01 16:29:25,51.32,42.77,63.73,81,98,7.05
501,Deputatskiy,RU,2020-08-01 16:29:36,69.3,139.9,44.78,89,97,2.55
502,Half Moon Bay,US,2020-08-01 16:28:35,37.46,-122.43,66.0,93,90,6.93
503,Kysyl-Syr,RU,2020-08-01 16:32:47,63.9,122.76,57.04,57,0,4.47
504,Parakai,NZ,2020-08-01 16:32:48,-36.65,174.43,55.99,98,100,3.0
505,Raudeberg,NO,2020-08-01 16:32:48,61.99,5.14,75.2,72,75,11.41
506,Gibara,CU,2020-08-01 16:32:48,21.11,-76.13,91.4,55,75,16.11
507,Shibetsu,JP,2020-08-01 16:32:48,43.66,145.13,63.9,95,55,9.31
508,Morrope,PE,2020-08-01 16:32:49,-6.54,-80.01,73.99,64,50,10.29
509,Bafq,IR,2020-08-01 16:32:49,31.61,55.41,88.65,25,32,8.1
510,Marzuq,YE,2020-08-01 16:32:49,14.4,46.47,79.54,61,1,9.71
511,Hambantota,LK,2020-08-01 16:32:49,6.12,81.12,78.8,94,40,10.29
512,Sao Joao Da Barra,BR,2020-08-01 16:28:28,-21.64,-41.05,75.2,50,75,6.93
513,San Quintin,MX,2020-08-01 16:32:50,30.48,-115.95,78.37,57,0,8.97
514,Boyolangu,ID,2020-08-01 16:32:50,-8.12,111.89,72.97,85,88,6.89
515,Cherskiy,RU,2020-08-01 16:28:56,68.75,161.3,39.87,88,85,8.88
516,Luzhou,CN,2020-08-01 16:32:50,28.87,105.44,78.98,88,96,2.86
517,Novi Bilokorovychi,UA,2020-08-01 16:32:50,51.12,28.05,62.04,78,11,7.29
518,Saint-Felicien,CA,2020-08-01 16:30:00,48.65,-72.45,75.2,78,20,4.7
519,Kjopsvik,NO,2020-08-01 16:32:51,68.1,16.37,63.0,72,0,14.99
520,Umm Kaddadah,SD,2020-08-01 16:32:51,13.6,26.69,73.54,79,100,7.58
521,Elat,IL,2020-08-01 16:32:51,29.56,34.95,107.6,26,0,11.41
522,Florence,IT,2020-08-01 16:32:51,43.77,11.25,97.0,30,0,11.41
523,Itoman,JP,2020-08-01 16:32:52,26.12,127.67,84.2,83,40,3.36
524,Sarankhola,BD,2020-08-01 16:32:52,22.31,89.79,83.64,84,100,5.68
525,Qalyub,EG,2020-08-01 16:32:52,30.18,31.21,93.2,32,0,10.29
526,Athabasca,CA,2020-08-01 16:32:52,54.72,-113.29,73.2,62,2,12.88
527,La Asuncion,VE,2020-08-01 16:28:38,11.03,-63.86,87.8,66,0,8.05
528,Luganville,VU,2020-08-01 16:32:53,-15.53,167.17,75.2,100,75,4.52
529,Neropolis,BR,2020-08-01 16:32:53,-16.41,-49.22,80.6,32,20,18.34
530,Waingapu,ID,2020-08-01 16:29:26,-9.66,120.26,71.69,82,46,8.14
531,Aguimes,ES,2020-08-01 16:32:53,27.91,-15.45,80.01,65,20,28.86
532,Yenagoa,NG,2020-08-01 16:32:53,4.92,6.26,80.28,70,62,7.63
533,Siguiri,GN,2020-08-01 16:32:54,11.67,-9.5,76.62,83,96,1.95
534,De-Kastri,RU,2020-08-01 16:32:54,51.47,140.78,60.53,94,100,5.82
535,El Progreso,HN,2020-08-01 16:32:54,15.4,-87.8,91.0,58,75,6.93
536,Tomatlan,MX,2020-08-01 16:29:23,19.93,-105.25,92.46,51,61,0.89
537,Makakilo City,US,2020-08-01 16:28:17,21.35,-158.09,77.0,77,20,3.36
538,Shieli,KZ,2020-08-01 16:32:55,44.17,66.75,78.01,37,49,11.68
539,Kalundborg,DK,2020-08-01 16:32:55,55.68,11.09,75.99,53,95,10.29
540,Mamakan,RU,2020-08-01 16:32:55,57.82,114.0,63.01,68,56,4.85
